name,brewery_type,city,state,postal_code,longitude,latitude,website_url
49th State Brewing Co - Anchorage,brewpub,Anchorage,AK,99501-2104,-149.8958196,61.2197366,http://www.49statebrewing.com/
49th State Brewing Co,micro,Healy,AK,99743,-149.017877,63.864759,https://www.49statebrewing.com/denali
Alaskan Brewing Co.,regional,Juneau,AK,99801-9540,-134.4918763,58.35681231,http://www.alaskanbeer.com
Anchorage Brewing Co,micro,Anchorage,AK,99515-1901,-149.8893581,61.1385311,http://www.anchoragebrewingcompany.com
Arkose Brewery,micro,Palmer,AK,99645-6689,-149.103408,61.582157,http://www.arkosebrewery.com
Baleen Brewing Co.,micro,Ketchikan,AK,99901,-131.817681,55.472907,https://www.baleenbrewing.com
Baranof Island Brewing Co,closed,Sitka,AK,99835-9759,-135.309951,57.049586,http://www.baranofislandbrewing.com
Barnaby Brewing Company,micro,Juneau,AK,99801,-134.405962,58.300314,http://www.barnabybrew.com
Bawden Street Brewing Company,micro,Ketchikan,AK,99901,-131.644822,55.34321,https://www.facebook.com/bawdenstreetbrewing
Bearpaw River Brewing Co,micro,Wasilla,AK,99654-7679,-149.4127103,61.5752695,http://bearpawriverbrewing.com
Bleeding Heart Brewery,closed,Palmer,AK,99645-6972,-149.109799,61.601303,http://facebook.com/bleedingheartbrewery
Broken Tooth Brewing Co,brewpub,Anchorage,AK,99501-1815,-149.8437638,61.2225517,https://brokentoothbrewing.net
Cooper Landing Brewing Company,micro,Cooper Landing,AK,99572,-149.8478495,60.4952185,http://www.cooperlandingbrewing.com
Cynosure Brewing,micro,Anchorage,AK,99518-1363,-149.881789,61.168841,https://www.cynosure.beer
Denali Brewing Company,micro,Talkeetna,AK,99676,-150.029188,62.161453,http://www.denalibrewing.com
Devil's Club Brewing,brewpub,Juneau,AK,99801-1223,-134.406956,58.301309,http://www.devilsclubbrewing.com
Faults Brewing,planning,Anchorage,AK,99509-0312,-149.8948523,61.2163129,NULL
Forbidden Peak Brewery,micro,Juneau,AK,99801,-134.645965,58.387811,https://forbiddenpeak.com
Gakona Brewing Company,micro,Gakona,AK,99586-0336,-145.335689,62.293667,https://www.gakonabrewing.com
Girdwood Brewing Company,micro,Girdwood,AK,99587-0058,-149.1540907,60.9578421,http://www.girdwoodbrewing.com
Glacier Brewhouse,brewpub,Anchorage,AK,99501-2129,-149.896703,61.218047,http://www.glacierbrewhouse.com
Grace Ridge Brewing,micro,Homer,AK,99603-7905,-151.504362,59.639728,https://www.graceridgebrewing.com
Growler Bay Brewing Co,planning,Valdez,AK,99686-3716,-146.3493638,61.1299396,https://growlerbaybrewing.com
Haines Brewing Co,micro,Haines,AK,99827,-135.4551927,59.2357624,http://www.hainesbrewing.com
Harbor Mountain Brewing Co,micro,Sitka,AK,99835-9759,-135.309951,57.049586,https://www.harbormountainbrewing.com/
Homer Brewing Co,micro,Homer,AK,99603-7945,-151.506636,59.640509,http://homerbrew.com
HooDoo Brewing Co,micro,Fairbanks,AK,99701-2701,-147.7598199,64.84855501,http://www.hoodoobrew.com
Humpy's Great Alaskan Alehouse,contract,Anchorage,AK,99501-2225,-149.8938928,61.216502,http://www.humpysalaska.com
Icy Strait Brewery,micro,Hoonah,AK,99829,-135.4464887,58.11031874,http://icystraitbrewing.company
Inside Passage Brewing Company LLC,closed,Ketchikan,AK,99901-6502,-131.6466819,55.3430696,NULL
Kassik's Brewery,micro,Kenai,AK,99611-9677,-151.307721,60.663773,NULL
Kenai River Brewing Co,brewpub,Soldotna,AK,99669-8010,-151.0561141,60.4850753,http://www.kenairiverbrewing.com
King Street Brewing Co,micro,Anchorage,AK,99515,-149.879076,61.13848935,http://www.kingstreetbrewing.com
Klondike Brewing Company,brewpub,Skagway,AK,99840,-135.3188721,59.45385743,http://www.klondikebeer.com
Kodiak Island Brewing Co,micro,Kodiak,AK,99615-6580,-152.407155,57.79008256,http://www.kodiakbrewery.com
Last Frontier Brewing Company,brewpub,Wasilla,AK,99654-7127,-149.4395534,61.581483,https://lastfrontierbrew.com
Matanuska Brewing Company - Downtown Brewpub,brewpub,Anchorage,AK,99501,-149.893012,61.219744,https://matanuskabrewingcompany.com
Matanuska Brewing Company - Eagle River,brewpub,Eagle River,AK,99577,-149.568403,61.328403,https://matanuskabrewingcompany.com
Matanuska Brewing Company - Midtown Brewpub,brewpub,Anchorage,AK,99503,-149.888563,61.195228,https://matanuskabrewingcompany.com
Midnight Sun Brewing Co,micro,Anchorage,AK,99507-3144,-149.8445465,61.1471249,http://www.midnightsunbrewing.com
Midnite Mine Brewpub,micro,Fairbanks,AK,99701-4838,-147.714159,64.845689,NULL
Odd Man Rush,micro,Eagle River,AK,99577-8095,-149.580902,61.320013,http://www.oddmanrushbrewing.com
Onsite Brewing Company,micro,Anchorage,AK,99503-4030,-149.876395,61.191918,https://onsitebrewing.com
QUAKE! Brewing Company,closed,Wasilla,AK,99654,-149.340342,61.596646,http://www.quakebrewingcompany.com
Resolution Brewing Company,brewpub,Anchorage,AK,99501-3141,-149.823091,61.21997889,http://www.resolutionbeer.com
RoughWoods Inn,brewpub,Nenana,AK,99760-9999,-149.096237,64.56274,http://www.roughwoodsinn.biz
Seward Brewing,brewpub,Seward,AK,99664,-149.440886,60.101258,http://www.sewardbrewingcompany.com
Silver Gulch Brewing Co,micro,Fox,AK,99712,-147.6219761,64.95708588,http://www.silvergulch.com
Skagway Brewing Co,brewpub,Skagway,AK,99840-9800,-135.315716,59.45506,http://www.skagwaybrewing.com
St Elias Brewing Co,micro,Soldotna,AK,99669-7665,-151.0472293,60.49148673,http://steliasbrewingco.com
5 Rivers Brewing LLC,planning,Spanish Fort,AL,36527-3161,-87.9152724,30.6749127,http://5riversbrewing.com
Avondale Brewing Co,micro,Birmingham,AL,35222-1932,-86.774322,33.524521,http://www.avondalebrewing.com
Back Forty Beer Co,micro,Gadsden,AL,35901-3361,-86.005006,34.016888,http://www.backfortybeer.com
Band of Brothers Brewing Company,micro,Tuscaloosa,AL,35401-4653,-87.56215513,33.19849071,http://www.bandofbrosbrewing.com
Below the Radar Brewing Co,brewpub,Huntsville,AL,35801-4837,-86.58583931,34.73272365,http://www.btrbrew.com
Big Beach Brewing Company,micro,Gulf Shores,AL,36542-3104,-87.683039,30.278051,http://www.bigbeachbrewing.com
Birmingham District Brewing,planning,Birmingham,AL,35242-5651,-86.8024326,33.5206824,NULL
Black Warrior Brewing Co.,micro,Tuscaloosa,AL,35401-1542,-87.565915,33.21061755,http://www.blackwarriorbrewing.com
Blue Pants Brewery,micro,Madison,AL,35758-8675,NULL,NULL,http://www.bluepantsbrew.com
Bluewater Brewing Co,micro,Florence,AL,35630-4810,-87.65970529,34.8041295,http://www.facebook.com/pg/BluewaterBrewingCompanyInc
Brewpub In Planning - Birmingham,planning,Birmingham,AL,35222,-86.8024326,33.5206824,NULL
Cahaba Brewing Co,micro,Birmingham,AL,35222-2911,NULL,NULL,http://www.cahababrewing.com
Chandler's Ford Brewing LLC,planning,Huntsville,AL,35802,-86.5859011,34.729847,http://chandlersfordbrewing.com
Chattahoochee Brewing Co,micro,Phenix City,AL,36867-5128,NULL,NULL,http://www.beerontheriver.com
Cheaha Brewing Co,brewpub,Anniston,AL,36201-4526,-85.83377405,33.6601671,http://www.cheahabrewingcompany.com
"Common Bond Brewers, LLC",micro,Montgomery,AL,36104,NULL,NULL,http://www.commonbondbrewers.com
Cross-Eyed Owl Brewing Co.,micro,Decatur,AL,35601-2301,-86.98663302,34.60412065,http://www.xeobrewing.com
Druid City Brewing,micro,Tuscaloosa,AL,35401-3439,-87.54373615,33.19997474,http://www.druidcitybrewing.com
Fairhope Brewing Co,micro,Fairhope,AL,36532-3684,-87.898282,30.516291,NULL
Ferus Artisan Ales,planning,Trussville,AL,35173-1480,-86.6084342,33.6196266,NULL
Folklore Brewing,micro,Dothan,AL,36301-9521,NULL,NULL,http://www.folklorebrewing.com
Ghost Train Brewing Co,micro,Birmingham,AL,35233-2619,-86.79406151,33.51415935,http://www.ghosttrainbrewing.com
Goat Island Brewing,micro,Cullman,AL,35055,NULL,NULL,http://www.goatislandbrewing.com
Good People Brewing Co,micro,Birmingham,AL,35233-1415,-86.81217995,33.50759461,http://www.goodpeoplebrewing.com
Green Bus Brewing,brewpub,Huntsville,AL,35801-4233,-86.58405136,34.73010503,http://www.greenbusbrewing.com
Haint Blue Brewing Company,contract,Mobile,AL,36602,-88.05126184,30.68474321,http://haintbluebrew.com
InnerSpace Brewing Company,micro,Huntsville,AL,35805-3014,-86.5932014,34.7277523,http://www.innerspacebrewing.com
Mad Malts Brewery & Tap Room,micro,Huntsville,AL,35801-4634,-86.585242,34.746475,http://www.madmaltsbrewing.com
Main Channel Brewing Company,micro,Guntersville,AL,35976-2113,-86.31216035,34.33873684,http://www.mainchannelbeer.com
Old Black Bear Brewing,micro,Madison,AL,35758-1813,-86.74922409,34.69329345,NULL
Old Majestic Brewing Company,planning,Mobile,AL,36602-2404,-88.0430541,30.6943566,NULL
Red Clay Brewing Company,micro,Opelika,AL,36801-4344,-85.37875418,32.64939542,http://www.redclaybrewingcompany.com
Red Hills Brewing Co,micro,Birmingham,AL,35209-2581,NULL,NULL,http://www.redhillsbrew.com
Rocket Republic Brewing Company,micro,Madison,AL,35758-8991,-86.77401733,34.6728014,http://www.rocketrepublicbrewing.com
Salty Nut Brewery,micro,Huntsville,AL,35805-3014,-86.5932014,34.7277523,http://www.saltynutbrewery.com
Sand Mtn brewery,planning,Section,AL,35771,-85.986644,34.5789747,http://Www.sandmtnbrewery.com
Serda Brewing Company,micro,Mobile,AL,36602-1720,-88.04938713,30.6879563,http://www.serdabrewing.com
Siluria Brewing Company,planning,Alabaster,AL,35007-8501,-86.8163773,33.2442813,http://www.siluriabrewing.com
"Singin' River Brewing Company, LLC",micro,Florence,AL,35630-5764,-87.66892994,34.8016657,http://www.singinriverbrewing.com
Straight to Ale,micro,Huntsville,AL,35805-3046,-86.5932014,34.7277523,http://www.straighttoale.com
Tallulah Brewing Company,micro,Jasper,AL,35501-5330,-87.278675,33.830796,NULL
The Railyard Brewing Co,brewpub,Montgomery,AL,36104-2573,NULL,NULL,http://www.railyardbrewingcompany.com
Trim Tab Brewing,micro,Birmingham,AL,35233-3401,-86.79140006,33.51284923,http://www.trimtabbrewing.com
Twisted Barley Brewing Company,micro,Jasper,AL,35501-5351,-87.28338,33.832359,NULL
Yellowhammer Brewery,micro,Huntsville,AL,35805-3046,-86.5932014,34.7277523,http://www.yellowhammerbrewery.com
Apple Blossom Brewing Co,brewpub,Fayetteville,AR,72703-5017,-94.1372796,36.1297079,http://www.appleblossombrewing.com
Bentonville Brewing Co,micro,Rogers,AR,72756-5923,-94.1178372,36.3168272,http://www.bentonvillebrewing.com
Bike Rack Brewing Co - 8th Street Market,micro,Bentonville,AR,72712-6409,-94.200584,36.364069,http://www.bikerackbrewing.com
Bike Rack Brewing Co,micro,Bentonville,AR,72712-5839,NULL,NULL,http://www.bikerackbrewing.com
Blue Canoe Brewing Co,micro,Little Rock,AR,72202,-92.25366807,34.73235496,http://www.bluecanoebrewco.com
Brick Oven Pizza Co / Brick & Forge Brewing,brewpub,Harrison,AR,72601,NULL,NULL,NULL
Brick Oven Pizza Co / Brick & Forge Brewing,brewpub,Paragould,AR,72450-6122,-90.52047972,36.03163581,http://www.brickovenpizzacompany.com
Bubba Brew's Brewing Company,micro,Bonnerdale,AR,71933-6648,NULL,NULL,http://www.bubbabrewsbrewingco.com
Buffalo Brewing Company At The Water Buffalo,micro,Little Rock,AR,72205,-92.366648,34.752616,http://www.thewaterbuffalo.com
Columbus House Brewery,micro,Fayetteville,AR,72701-1865,-94.16886854,36.0771652,NULL
Core Brewing & Distilling Co,micro,Springdale,AR,72764-1819,NULL,NULL,http://www.corebeer.com
Core Brewing - Hot Springs,brewpub,Hot Springs National Park,AR,71901,NULL,NULL,NULL
Core Brewing - SoMa,brewpub,Little Rock,AR,72202,NULL,NULL,NULL
Crisis Brewing LLC,micro,Fayetteville,AR,72701-4459,-94.16087539,36.05959704,http://www.crisisbrew.com
Damgoode Pies,brewpub,Little Rock,AR,72201-1756,-92.2653101,34.7475388,http://www.damgoodepies.com
Diamond Bear Brewing Co,micro,North Little Rock,AR,72114-5381,-92.27268921,34.75942775,http://www.diamondbear.com
Fayetteville Brewing Company,planning,Fayetteville,AR,72704-7402,-94.1574328,36.0625843,http://www.fayettebrew.com
Flyway Brewing Co,brewpub,North Little Rock,AR,72114-5334,NULL,NULL,NULL
Fort Smith Brewing Company,micro,Fort Smith,AR,72916-6086,-94.298483,35.310777,http://www.fsbrewco.com
Fossil Cove Brewing Co,brewpub,Fayetteville,AR,72703-2408,-94.16478287,36.0879053,http://www.fossilcovebrewing.com
Foster's Pint & Plate,brewpub,Rogers,AR,72758-4050,NULL,NULL,http://www.fosterspintandplate.com
Gotahold Brewing Company,planning,Eureka Springs,AR,72632,-93.7392419,36.4000796,NULL
Gravity Brew Works,micro,Big Flat,AR,72617,NULL,NULL,http://www.gravitybrewworks.com
Hawk Moth Brewing Co,planning,rogers,AR,72756,-94.1185366,36.3320197,NULL
Hog Haus Brewing Co,brewpub,Fayetteville,AR,72701-5107,-94.16524371,36.0666309,http://www.hoghaus.com
JJs Brewing Company,brewpub,fayetteville,AR,72703,-94.15714342,36.11719055,http://www.thejbgb.com/
Lost 40 brewing,micro,Little Rock,AR,72202-2660,-92.25901,34.74268558,NULL
Lost Forty Brewing,micro,Little Rock,AR,72202,-92.260019,34.742845,http://www.lost40brewing.com/
New Province Brewing Company,micro,Rogers,AR,72756-2311,-94.13279216,36.355352,http://newprovincebrewing.com
Norfork Brewing Company,micro,Norfork,AR,72658-9630,-92.2711893,36.2245472,http://www.nfbrew.com
Ozark Beer Company,micro,Rogers,AR,72756-6601,-94.1147203,36.3335034,http://www.ozarkbeercompany.com
Prestonrose Farm and Brewing Co.,brewpub,Paris,AR,72855-5853,NULL,NULL,http://prestonrose.squarespace.com
Puritan Brew Company,contract,Fayetteville,AR,72701-5222,-94.1620702,36.066188,http://www.puritanbrewcompany.com
Rapp's Barren Brewing Company,micro,Mountain Home,AR,72653-5050,-92.3599724,36.3326432,http://www.rappsbarrenbrewing.com
Rebel Kettle Brewing Company,brewpub,Little Rock,AR,72202-2606,-92.26209196,34.74211127,http://www.rebelkettle.com
Refined Ale Brewery,micro,Little Rock,AR,72204-5452,-92.3184697,34.73083447,http://www.refinedale.com
Rendezvous Junction Brewing Company,micro,Rogers,AR,72758-4050,NULL,NULL,http://www.rendezvousjunction.com
Saddlebock Brewery,micro,Springdale,AR,72764-7582,NULL,NULL,http://www.saddlebock.com
Slate Rock Brewing Company,micro,Amity,AR,71921-,-93.46113043,34.26406928,http://www.slaterockbrewing.com
SQZBX Brewery,brewpub,Hot Springs,AR,71901,-93.0557936,34.50751903,http://www.sqzbx.com
Stone's Throw Brewing,brewpub,Little Rock,AR,72202-3914,-92.26806633,34.7397885,http://www.stonesthrowbeer.com
Superior Bathhouse Brewery,brewpub,Hot Springs National Park,AR,71901-3525,NULL,NULL,http://www.superiorbathhouse.com
Tiny Tim's Pizza /West Mountain Brewery,brewpub,Fayetteville,AR,72701-6086,-94.1602601,36.0617393,http://www.facebook.com/pg/tinytimspizza
Vino's Pizza Pub Brewery,brewpub,Little Rock,AR,72201-4005,-92.28140212,34.7434392,http://www.vinosbrewpub.com
Whistleing Springs Brewing Company / Dark Hills Brewery,planning,Lowell,AR,72745-9294,-94.1307587,36.2553543,http://www.darkhillsbrew.com
12 West Brewing Company,micro,Gilbert,AZ,85296-7832,NULL,NULL,http://www.12westbrewing.com
12 West Brewing Company - Production Facility,micro,Mesa,AZ,85207,-111.5860662,33.436188,NULL
1912 Brewing,micro,Tucson,AZ,85745-1444,-110.9927505,32.24673727,http://www.1912brewing.com
8-Bit Aleworks,micro,Avondale,AZ,85323-5206,NULL,NULL,http://www.8-bitaleworks.com
Arizona Craft Brewing,micro,Elgin,AZ,85611,NULL,NULL,NULL
Arizona Wilderness Brewing,brewpub,Gilbert,AZ,85233-3405,NULL,NULL,http://Azwbeer.com
Barrio Brewing Co,micro,Tucson,AZ,85719-6603,-110.959665,32.214613,http://www.barriobrewing.co
Bad Water Brewing,contract,Scottsdale,AZ,85251-3914,-111.9244743,33.49726157,http://www.badwaterbrewing.com
Barley Brothers Brewery,brewpub,Lake Havasu City,AZ,86403-6597,-114.3206399,34.4770677,http://www.barleybrothers.com
Barnstar Brewing,micro,Skull Valley,AZ,86338,NULL,NULL,http://www.barnstarbrew.com
Beaver Street Brewery,brewpub,Flagstaff,AZ,86001-5500,NULL,NULL,http://www.beaverstreetbrewery.com
"Beer Research Institute, The",brewpub,Mesa,AZ,85204,NULL,NULL,http://www.bri.beer
BJs Restaurant & Brewery - Chandler,brewpub,Chandler,AZ,85226-5175,-111.911126,33.3053455,http://www.bjsrestaurants.com
Black Bridge Brewery,micro,Kingman,AZ,86401-5833,-114.051737,35.1895877,http://www.blackbridgebrewery.com
Black Horse Brewery,micro,Show Low,AZ,85901-3924,NULL,NULL,http://www.blackhorsebrewery.us
BlackRock Brewers,micro,Tucson,AZ,85710-6767,-110.8217786,32.20160831,http://www.brb.beer
Blasted Barley Beer Company,brewpub,Tempe,AZ,85281-2879,NULL,NULL,http://www.blastedbarley.com
Borderlands Brewing Co,micro,Tucson,AZ,85701-1210,-110.9676305,32.22334681,http://www.borderlandsbrewing.com
"Button Brew House, LLC",micro,Tucson,AZ,85741-2395,NULL,NULL,http://www.button.beer
Catalina Brewing Company,micro,Tucson,AZ,85741-2281,NULL,NULL,http://www.catalinabrewingco.com/
College Street Brewhouse and Pub,micro,Lake Havasu City,AZ,86403-1981,-114.3475961,34.50754044,NULL
Copper Brothel Brewery,micro,Sonoita,AZ,85637,NULL,NULL,http://www.copperbrothelbrewery.com
Copper Mine Brewing Co,micro,Tucson,AZ,85713,NULL,NULL,http://www.copperminebrewing.com
Coppertop Alehouse and Still Works,brewpub,Prescott,AZ,86303-4720,-112.470304,34.53851944,http://www.coppertopalehouse.com
Corbett Brewing Company,micro,Tucson,AZ,85705,-110.96679,32.22634085,NULL
CRAFT 64,contract,Scottsdale,AZ,85251-4312,-111.9319271,33.493153,http://www.craft64.com
Crooked Tooth Brewing Co.,micro,Tucson,AZ,85705-8424,-110.9677332,32.22762302,http://www.crookedtoothbrewing.com
Dark Sky Brewing Co.,micro,Flagstaff,AZ,86001-5677,NULL,NULL,http://www.darkskybrewing.com
Deep Roots Brewing,planning,Phoenix,AZ,85007-3115,-112.0773456,33.4485866,http://www.deeprootsbrewing.com
Desert Eagle Brewing Company,micro,Mesa,AZ,85201-7310,-111.8568311,33.4148261,http://www.deserteaglebrewing.com
Desert Monks Brewing Co.,planning,Gilbert,AZ,85296-3480,-111.7890239,33.3528259,https://www.desertmonksbrewing.com/
Dillinger Brewing Company,micro,Tucson,AZ,85705-3228,-110.9785303,32.2997436,http://www.dillingerbrewing.com
Dragoon Brewing Co,micro,Tucson,AZ,85745-1214,-111.0054521,32.25049461,http://www.dragoonbrewing.com
Dubina Brewing Co.,brewpub,Glendale,AZ,85308-3655,NULL,NULL,http://www.dubinabrewing.com
Edge Of The World Brewery,micro,Colorado City,AZ,86021-1524,-112.9740725,36.9941047,http://edgeoftheworld.bar
Elevate Your Passion Brewing,micro,Tempe,AZ,85281-7245,NULL,NULL,http://www.elevateyourpassion.com
Flagstaff Brewing Co,brewpub,Flagstaff,AZ,86001-5792,-111.523296,35.2109064,http://www.flagbrew.com
Flying Basset Brewing,brewpub,Gilbert,AZ,85233,-111.8054389,33.32098148,http://www.flyingbassetbrewing.com
Four Peaks Brewery & Taproom,large,Tempe,AZ,85282-2054,-111.9446549,33.40287138,http://www.fourpeaks.com
Four Peaks Brewing Co,large,Tempe,AZ,85281-4396,NULL,NULL,http://www.fourpeaks.com
Freak'N Brewing Company,micro,Peoria,AZ,85345-8385,NULL,NULL,http://www.freaknbrew.com
Goldwater Brewing Co,micro,Scottsdale,AZ,85251-5612,-111.9254955,33.658427,http://www.goldwaterbrewing.com
Good Bad Ugly Brewing Co. @ Tavern+Bowl Westgate,brewpub,Glendale,AZ,85305-3224,NULL,NULL,http://www.tavernbowlwestgate.com
Gordon Biersch Brewery Restaurant - Glendale,brewpub,Glendale,AZ,85305-2488,-112.2638679,33.5050851,http://www.craftworksrestaurants.com
Gordon Biersch Brewery Restaurant - Tempe,brewpub,Tempe,AZ,85281-2870,NULL,NULL,http://www.craftworksrestaurants.com
Grand Canyon Brewing Company,micro,Williams,AZ,86046-2530,-112.1892168,35.2500282,http://www.grandcanyonbrewingco.com
Grand Canyon Brewing,brewpub,Williams,AZ,86046,NULL,NULL,NULL
Granite Mountain Brewing,micro,Prescott,AZ,86302-1109,-112.4686018,34.54238481,http://www.granitemountainbrewing.com
Green Feet Brewing,micro,Tucson,AZ,85713-6814,-110.9232648,32.1843632,http://www.greenfeetbrewing.com
Greenwood Brewing LLC,contract,Phoenix,AZ,85004-4489,NULL,NULL,http://www.greenwoodbrews.com
Epidemic Ales,micro,Concord,CA,94520,NULL,NULL,http://www.epidemicales.com
10 Barrel Brewing Co,large,San Diego,CA,92101-6618,-117.129593,32.714813,http://10barrel.com
101 North Brewing Company,micro,Petaluma,CA,94954-7100,NULL,NULL,http://www.101northbeer.com
14 Cannons Brewing Company,micro,Westlake Village,CA,91362-3974,-118.802397,34.15334,http://14cannons.com
1850 Brewing Company,micro,Mariposa,CA,95338,-119.9036592,37.570148,http://www.1850restaurant.com
2 Tread Brewing Co,brewpub,Santa Rosa,CA,95401-6399,-122.7167729,38.4387767,http://www.2treadbrewing.com
21st Amendment Brewery Cafe,brewpub,San Francisco,CA,94107-1411,-122.3925769,37.782448,http://www.21st-amendment.com
21st Amendment Brewery,regional,San Leandro,CA,94577-2334,NULL,NULL,http://www.21st-Amendment.com
2Kids Brewing Company,micro,San Diego,CA,92126-6391,-117.137429,32.896584,http://www.2kidsBrewing.com
3 Disciples Brewing,micro,Sebastopol,CA,95472-5937,-122.8332502,38.3845125,http://www.3disciplesbrewing.com/home
3 Iron Brewing Company,micro,Colton,CA,92324-3920,NULL,NULL,http://www.3ironbrewingco.com
32 North Brewing Co,micro,San Diego,CA,92121-2258,NULL,NULL,NULL
411 Broadway Ales,planning,Fresno,CA,93721-2801,-119.7088613,36.7295295,NULL
47 Hills Brewing Co,brewpub,South San Francisco,CA,94080-6410,-122.4136168,37.64425595,http://47hillsbrewingcompany.com
5150 Brewing At The Brass Tap Rocklin,micro,Rocklin,CA,95677-3925,-121.207331,38.8047402,http://www.brasstaprocklin.com
559 Local Brewing,micro,Clovis,CA,93612-1183,-119.7017487,36.82517171,http://www.fresnobrewingcompany.com
6th and La Brea,brewpub,Los Angeles,CA,90036,-118.3440213,34.0730485,http://www.6thlabrea.com
7 Sisters Brewing Co,brewpub,San Luis Obispo,CA,93401-7082,-120.6706375,35.2467278,http://www.7sistersbrewing.com
8 Bit Brewing Company,brewpub,Murrieta,CA,92562-6941,NULL,NULL,http://www.8bitbrewerycompany.com
8one8 Brewing Company,micro,Canoga Park,CA,91304-5901,-118.5885323,34.2218019,http://www.818brewing.com
927 Beer Company,micro,Cambria,CA,93428-2434,-121.0985408,35.5666725,http://www.cambriabeerco.com
Abigaile,brewpub,Hermosa Beach,CA,90254-3666,-118.4048656,33.8734519,http://abigailrestaurant.com
Abnormal Beer Company,micro,San Diego,CA,92127-1649,-117.08575,33.02391,http://abnormalbeer.co
Absolution Brewing Co,micro,Torrance,CA,90503-3808,-118.3378601,33.8431391,http://www.absolutionbrewingcompany.com
Absolution By the Sea,brewpub,La Jolla,CA,92037-4839,-117.2740167,32.84083388,NULL
Acoustic Ales Brewing Experiment,micro,San Diego,CA,92110-2006,NULL,NULL,http://www.acousticales.com
Adobe Creek Brewing Company,micro,Novato,CA,94949-5718,NULL,NULL,http://www.adobecreekbrewing.com
Aftershock Brewing Co,micro,Temecula,CA,92590-2893,-117.1485306,33.49310382,http://www.aftershockbrewingco.com
Alameda Island Brewing Company,micro,Alameda,CA,94501-1416,-122.2394506,37.76833631,http://www.alamedaislandbrewingcompany.com
Alaro Craft Brewery,brewpub,Sacramento,CA,95811,-121.4811835,38.57323961,http://www.alarobrewing.com
Ale House Brewing Co,micro,San Jose,CA,95118-1605,-121.8905833,37.3361905,NULL
Ale Industries,micro,Oakland,CA,94601-2960,-122.2281897,37.7761111,http://www.aleindustries.com
AleSmith Brewing Co,regional,San Diego,CA,92126-4200,NULL,NULL,http://www.alesmith.com
Align Brewing Co,micro,San Diego,CA,92126-6300,-117.137429,32.896584,http://www.facebook.com/alignbrewing
All-American Ale Works,micro,Anaheim,CA,92807-2082,NULL,NULL,http://www.all-americanaleworks.com
Almanac Beer Company,micro,Alameda,CA,94501-5047,-122.3062832,37.78344977,http://almanacbeer.com
Alosta Brewing Co,micro,Covina,CA,91722-2122,-117.8781466,34.10365026,http://www.alostabrewing.com
Alpenglow Beer Co,contract,Lafayette,CA,94549-4621,-122.1180201,37.8857582,http://www.buckwildbrew.com
Alpha Acid Brewing Co,micro,Belmont,CA,94002-8208,NULL,NULL,NULL
Alpine Beer Company,brewpub,San Diego,CA,92121-4100,-117.113975,32.9167796,http://www.alpinebrewing.com
Alta Brewing Company,micro,San Diego,CA,92113-1125,-117.1414712,32.7018758,http://www.altabrewing.com
Altamont Beer Works,micro,Livermore,CA,94550-3850,-121.7210974,37.67839114,http://www.altamontbeerworks.com
Alvarado Street Brewery & Grill,brewpub,Monterey,CA,93940-2711,-121.8946096,36.59857755,NULL
Alvarado Street Brewery,micro,Salinas,CA,93901-4400,NULL,NULL,NULL
Amador Brewing Company,micro,Plymouth,CA,95669-9570,-120.849271,38.4808723,http://www.amadorbrewing.com
Ambitious Ales,planning,Long Beach,CA,90807-2907,-118.1580493,33.78538945,http://www.ambitiousales.com
Amplified Ale Works Miramar Studio,brewpub,San Diego,CA,92121-2432,NULL,NULL,NULL
Amplified Ale Works,brewpub,San Diego,CA,92109-5054,-117.2511178,32.7719729,http://www.amplifiedales.com
Anacapa Brewing Co,brewpub,Ventura,CA,93001-2627,-119.2935874,34.28073347,http://www.anacapabrewing.com
Anaheim Brewery,micro,Anaheim,CA,92805-3830,-117.9125249,33.8328226,http://www.anaheimbrew.com
Boulder Beer Co,regional,Boulder,CO,80301-5401,-105.2480158,40.026439,NULL
SKA Brewing,regional,Durango,CO,81303-6827,NULL,NULL,NULL
Upslope Brewing Company,planning,Boulder,CO,80301,NULL,NULL,NULL
10 Barrel Brewing Co - Denver,large,Denver,CO,80205-2231,-104.9853655,39.7592508,NULL
105 West Brewing Co,micro,Castle Rock,CO,80109-1585,-104.8667206,39.38269495,http://www.105westbrewing.com
12Degree Brewing,brewpub,Louisville,CO,80027-1865,-105.1319826,39.9782443,http://www.12degree.com
14er Brewing Company,proprietor,Denver,CO,80205-2235,-104.9839636,39.7614112,http://www.14erBrewing.com
3 Freaks Brewing Co,micro,Highlands Ranch,CO,80126-3926,-104.9426656,39.5659575,http://www.3freaksbrewery.com
300 Suns Brewing Company,brewpub,Longmont,CO,80501-5958,NULL,NULL,http://www.300sunsbrewing.com
38 State Brewing,micro,Littleton,CO,80122-2730,NULL,NULL,http://www.38statebrew.com
4 Noses Brewing Company,micro,Broomfield,CO,80021-2521,NULL,NULL,http://4nosesbrewing.com
4B's Brewery,brewpub,Cedaredge,CO,81413-3339,-107.925782,38.900614,http://www.4bsbrewery.com
6 & 40 Brewery/Taproom,planning,Lakewood,CO,80215-5548,-105.1100582,39.6311085,http://www.tomsbrewshop.com
7 Hermits Brewing Company,brewpub,Eagle,CO,81631-3186,NULL,NULL,http://www.7hermitsbrewing.com
Acidulous Brewing Company,contract,Littleton,CO,80128-4046,-105.1059543,39.5383949,NULL
Aero Craft Brewing,planning,Denver,CO,80212-2199,-104.984696,39.7391428,http://www.aerocraft.beer
Alpine Dog Brewing Co,micro,Denver,CO,80218-1405,NULL,NULL,http://www.alpinedogbrewery.com
Alternation Brewing Company,micro,Denver,CO,80210-2607,-104.9876117,39.68866374,http://www.alternationbrewing.com
Amalgam Brewing,proprietor,Denver,CO,80221-2036,NULL,NULL,http://www.amalgambrewing.com
Angry James Brewing Co,micro,Silverthorne,CO,80498,-106.0764637,39.63306895,http://www.angryjamesbrewing.com
Anheuser-Busch Inc - Fort Collins,large,Fort Collins,CO,80524-9400,-105.0019686,40.61817811,NULL
Animas Brewing Co,brewpub,Durango,CO,81301-5186,-107.8769912,37.27997215,http://www.animasbrewing.com
Asher Brewing Co,micro,Boulder,CO,80301-5306,NULL,NULL,http://asherbrewing.com
Aspen Brewing Company,micro,Aspen,CO,81611-3530,-106.8597747,39.22153402,http://www.aspenbrewingcompany.com
Atom Brewing Company,micro,Erie,CO,80516,-105.0542327,40.0488359,http://www.atombrewingcompany.com
Atrevida Beer Company,micro,Colorado Springs,CO,80908,NULL,NULL,http://www.atrevidabeerco.com
Avalanche Brewing Co,brewpub,Silverton,CO,81433-0377,-107.664791,37.8098899,http://www.avalanchebrewing.com
Avery Brewing Co,regional,Boulder,CO,80301-3242,-105.2047652,40.0625835,NULL
Baere Brewing Company,micro,Denver,CO,80203-3955,NULL,NULL,http://www.baerebrewing.com
Banded Oak Brewing Company,brewpub,Denver,CO,80203-3404,-104.9874187,39.7282897,http://Bandedoakbrewing.com
Barnett and Son Brewing Company,micro,Parker,CO,80134-9605,NULL,NULL,NULL
Barrel Dog Brewing,micro,Evergreen,CO,80439,-105.321458,39.6361637,NULL
Barrels & Bottles Brewery,brewpub,Golden,CO,80401-6145,-105.2202098,39.7562107,http://www.barrelsbottles.com
Beer By Design Brewery,contract,Thornton,CO,80233-2533,-104.9417886,39.9285623,http://www.beerbydesign.com
Berthoud Brewing Company,micro,Berthoud,CO,80513,NULL,NULL,http://www.berthoudbrewing.com
Beyond The Mountain Brewing Company,micro,Boulder,CO,80301-3203,NULL,NULL,http://www.btmbrewing.com
Bierstadt Lagerhaus,brewpub,Denver,CO,80205-2210,-104.9838084,39.7630094,http://www.bierstadtlager.com
BierWerks,brewpub,Woodland Park,CO,80863,-105.0519462,38.9941414,http://www.bierwerks.com
Big Beaver Brewing Co,micro,Loveland,CO,80537-3141,NULL,NULL,http://www.bigbeaverbrew.com
Big Choice Brewing Co,micro,Brighton,CO,80601-1603,-104.822433,39.98642943,http://www.bigchoicebrewing.com
Big Thompson Brewery,micro,Loveland,CO,80538-3832,-105.0746687,40.40811243,NULL
BJs Restaurant & Brewery - Boulder,brewpub,Boulder,CO,80301-,-105.258512,40.0291592,http://www.bjsrestaurants.com
Black Beak Brewing,planning,Denver,CO,80237-1907,-104.984696,39.7391428,NULL
Black Bottle Brewery,brewpub,Fort Collins,CO,80525-1074,NULL,NULL,http://www.blackbottlebrewery.com
Black Cat Brewing,planning,Boulder,CO,80302,-105.2705456,40.0149856,http://www.blackcatbrewing.com
Black Forest Brewing Company,brewpub,Colorado Springs,CO,80908-6000,NULL,NULL,http://www.blackforestbrewco.com
Black Project Spontaneous & Wild Ales,micro,Denver,CO,80210-1504,-104.9872018,39.6933607,http://www.blackprojectbeer.com
Black Shirt Brewing Co,brewpub,Denver,CO,80205-2436,-104.9729604,39.7698142,http://www.blackshirtbrewingco.com
Black Sky Brewery,brewpub,Denver,CO,80204-5024,-104.9983183,39.7239431,http://www.blackskybrewing.com
Blue Moon Brewery,large,Denver,CO,80216-3632,-104.9769417,39.7735561,NULL
30 Mile Brewing Co.,micro,Old Saybrook,CT,06475-1518,NULL,NULL,http://www.30milebrewingco.com
Athletic Brewing Company,planning,Stratford,CT,06615-7167,NULL,NULL,http://www.AthleticBrewing.com
Alvarium Beer Company,micro,New Britain,CT,06051-2922,NULL,NULL,http://www.alvariumbeer.com
Armada Brewing,contract,East Haven,CT,6512,-72.87397563,41.29004301,http://www.armadabeer.com
Aspetuck Brew Lab,micro,Bridgeport,CT,6605,-73.2357109,41.1544649,http://www.aspetuckbrewlab.com
Back East Brewing,micro,Bloomfield,CT,06002-5312,NULL,NULL,http://www.backeastbrewing.com
BADSONS Beer Co,micro,Derby,CT,06418-1665,-73.1322771,41.3513647,http://www.badsoons.com
Barley Head Brewery,micro,Mystic,CT,6355,NULL,NULL,http://www.barleyheadbrewery.com
Beaver Beer Co,contract,Westport,CT,06880-6227,-73.311685,41.12587,http://www.beaverbeer.com
Black Hog Brewing Co,micro,Oxford,CT,06478-1047,NULL,NULL,http://www.blackhogbrewing.com
Black Pond Brews,micro,Danielson,CT,06239-3040,-71.88394473,41.80470085,http://www.blackpondbrews.com
Boondoggle Brewing,contract,Wethersfield,CT,06109-3732,-72.66458677,41.6838887,http://www.boondogglebeers.com
Brass Works Brewing Company LLC,micro,Waterbury,CT,06704-1038,-73.05753662,41.59747633,http://www.brassworksbrewing.com
Brewery Legitimus,micro,New Hartford,CT,06057-2750,NULL,NULL,http://www.brewerylegitimus.com
Brewport Brewing Co,brewpub,Bridgeport,CT,06604-5031,-73.19238627,41.170877,http://www.brewportct.com
Broad Brook Brewing Company,micro,Suffield,CT,6078,-72.66266463,41.96200785,http://www.broadbrookbrewing.com
Broad Leaf Farm Brewery,planning,South Glastonbury,CT,06073-2017,NULL,NULL,NULL
Broken Symmetry Gastro Brewery,brewpub,Bethel,CT,06801-2507,-73.41424776,41.37097334,NULL
BruRm At Bar,brewpub,New Haven,CT,06511-6610,-72.9302577,41.3061639,http://www.barnightclub.com
Cambridge House Brew Pub - Granby,brewpub,Granby,CT,06035-0438,-72.79259539,41.96631414,http://www.cbh.beer
Center Street Brewing Company,planning,Wallingford,CT,6492,NULL,NULL,http://n/a
Charter Oak Brewing Company LLC,contract,Danbury,CT,06810-7043,-73.40421711,41.3961903,http://www.charteroakbrewing.com
Church Owl Beer,micro,Stratford,CT,06615-7320,NULL,NULL,http://www.churchowlbeer.com
City Steam Brewery,brewpub,Hartford,CT,06103-1215,NULL,NULL,http://www.citysteam.biz
Cliffside Brewing,micro,Wallingford,CT,06492-4110,-72.8236736,41.45664583,http://www.cliffsidebrewing.com
Cold Creek Brewery,micro,Ellington,CT,06029-2632,-72.456028,41.9209531,http://coldcreekbrewery.com
Coles Road Brewing,planning,Cromwell,CT,06416-1113,NULL,NULL,http://ColesRoadBrewing.com
Connecticut Valley Brewing Company,micro,South Windsor,CT,06074-1945,-72.57147904,41.84872829,http://www.ctvalleybrewing.com
Cottrell Brewing Co,micro,Pawcatuck,CT,06379-2163,-71.834289,41.370676,http://www.cottrellbrewing.com
Counterweight Brewing Company,micro,Hamden,CT,06514-1331,-72.91955341,41.39321167,http://www.Counterweightbrewing.com
Dockside Waterfront Biergarten and Brewery,planning,Milford,CT,6460,NULL,NULL,NULL
Duvig Brewing Co,micro,Branford,CT,06405-2868,NULL,NULL,http://www.duvig.com
East Rock Brewing Company,planning,New Haven,CT,06511-2625,NULL,NULL,http://www.eastrockbeer.com
Epicure Brewing,micro,Norwich,CT,06360-,-72.07437477,41.52521341,http://www.epicurebrewing.com
Fairfield Craft Ales,micro,Stratford,CT,06615-7109,-73.14702832,41.17565816,http://www.fairfieldcraftales.com
Fat Orange Cat Brew Co,micro,East Hampton,CT,06424-1636,NULL,NULL,http://www.fatorangecatbrewco.com
Forest City Brewing,micro,Middlefield,CT,6455,NULL,NULL,NULL
Fifth Year Brewery,planning,West Haven,CT,06516-7515,NULL,NULL,NULL
Firefly Hollow Brewing Co.,micro,Bristol,CT,06010-5086,NULL,NULL,http://www.fireflyhollowbrewing.com
Five Churches Brewing,brewpub,New Britain,CT,06051-2516,-72.782706,41.662994,http://www.facebook.com/FiveChurchesBrewing
Fox Farm Brewery,micro,Salem,CT,06420-3847,-72.26788506,41.48370071,http://foxfarmbeer.com
Front Porch Brewing,micro,Wallingford,CT,06492-2397,NULL,NULL,http://www.frontporchbrewing.org
Great Falls Brewing Company,planning,Canaan,CT,6018,NULL,NULL,http://GreatFallsBrews.com
Half Full Brewery,micro,Stamford,CT,06902-7204,-73.54959135,41.03933226,http://www.halffullbrewery.com
Hammer & Nail Brewing,planning,Trumbull,CT,06611-4975,NULL,NULL,http://www.HammerNailBrewing.com
Hanging Hills Brewing Company,micro,Hartford,CT,06114-1403,-72.67011733,41.74481243,http://www.hanginghillsbrewery.com
Hog River Brewing Co,micro,Hartford,CT,06106-2236,-72.70182745,41.75799856,http://www.hogriverbrewing.com
Housatonic River Brewing,planning,New Milford,CT,06776-3404,NULL,NULL,http://www.housatonicriverbrewing.com
"HRG Management, LLC",planning,Hartford,CT,6109,NULL,NULL,NULL
Iron Brewing Company,brewpub,Norwalk,CT,6854,-73.41734954,41.09888787,http://www.ironbrewing.com
3 Stars Brewing Co,micro,Washington,DC,20012-2111,NULL,NULL,http://www.3starsbrewing.com
AdMerk Corp. Inc.,contract,Washington,DC,20001-6700,-77.0094205,38.89742205,http://www.paugustin.com
Atlas Brew Works,micro,Washington,DC,20002-1832,NULL,NULL,http://www.atlasbrewworks.com
Bardo Brewpub,micro,Washington,DC,20003-3670,-77.00658302,38.87165373,http://www.bardo.beer
Bluejacket,brewpub,Washington,DC,20003-4625,-77.0006981,38.8750965,http://www.bluejacketdc.com
Capitol City Brewing Co,contract,Washington,DC,20002-4945,-77.0082686,38.8979293,http://www.capcitybrew.com
City-State Brewing Company,planning,Washington,DC,20017-2518,NULL,NULL,http://citystatebrewing.com
DC Brau Brewing Company,regional,Washington,DC,20018-2214,NULL,NULL,http://www.dcbrau.com
District ChopHouse and Brewery,brewpub,Washington,DC,20004-1600,-77.0216694,38.8965132,http://www.districtchophouse.com
Gordon Biersch Brewery Restaurant - Navy  Yard,brewpub,Washington,DC,20003-3519,-77.0052971,38.8766834,http://www.gordonbiersch.com/locations/navy-yard?action=view
Gordon Biersch Brewery Restaurant - Washington,brewpub,Washington,DC,20004-1404,-77.0243479,38.8971375,http://www.gordonbiersch.com/locations/washington-dc?action=view
Hellbender Brewing Company,micro,Washington,DC,20011-2524,-77.0053314,38.9603005,http://www.hellbenderbeer.com
Red Bear Brewing Co,planning,Washington,DC,20002-3406,NULL,NULL,http://www.redbear.beer
Right Proper Brewing Company,micro,Washington,DC,20017-3424,-76.99307078,38.9267988,http://www.rightproperbrewing.com
Right Proper Brewing Company,brewpub,Washington,DC,20001-5119,-77.0213751,38.9154119,http://www.rightproperbrewery.com
The Public Option,brewpub,Washington,DC,20018-1841,-76.9817377,38.926148,http://www.thepublicoptiondc.com
16 Mile Brewing Co,micro,Georgetown,DE,19947-1849,-75.37816436,38.6788938,http://www.16milebrewery.com
38Â°-75Â° Brewing,brewpub,Rehoboth Beach,DE,19971,-75.090191,38.7074994,NULL
3rd Wave Brewing Co,micro,Delmar,DE,19940-1106,NULL,NULL,http://www.3rdwavebrewingco.com
Argilla Brewing Co @ Pietro's Pizza,brewpub,Newark,DE,19711-7242,NULL,NULL,http://www.argillabrewing.com
Bellefonte Brewing Co,micro,Wilmington,DE,19808-6043,NULL,NULL,http://www.bellefontebrewingco.com
Blue Earl Brewing Company,micro,Smyrna,DE,19977-3715,-75.62418056,39.28096844,http://www.blueearlbrewing.com
Brick Works Brewing and Eats,brewpub,Smyrna,DE,19977-1573,-75.60080124,39.29825995,http://www.brickworksde.com
Crooked Hammock Brewery,brewpub,Lewes,DE,19958-4877,NULL,NULL,NULL
Dew Point Brewing,brewpub,Yorklyn,DE,19736-,-75.6729188,39.8100606,http://www.dewpointbrewing.com
Dewey Beer Co.,brewpub,Dewey Beach,DE,19971-2317,-75.07497503,38.6961465,http://www.deweybeerco.com
Dogfish Head Brewings & Eats,brewpub,Rehoboth Beach,DE,19971-3108,-75.08731545,38.7151767,http://www.dogfish.com
Dogfish Head Craft Brewery,regional,Milton,DE,19968-1308,-75.31158206,38.76691205,http://www.dogfish.com
Fins Big Oyster Brewery,brewpub,Rehoboth Beach,DE,19971-6113,-75.090191,38.7074994,http://bigoysterbrewery.com
First State Brewing Company,planning,Middletown,DE,19709-1482,NULL,NULL,http://www.firststatebrewing.com
Fordham and Old Dominion Brewing Company,large,Dover,DE,19901-4639,NULL,NULL,http://www.fordhamanddominion.com
Iron Hill Brewery & Restaurant - Newark,brewpub,Newark,DE,19711-7313,-75.7468068,39.6834128,http://www.ironhillbrewery.com
Iron Hill Brewery & Restaurant - Rehoboth Beach,brewpub,Rehoboth Beach,DE,19971,-75.090191,38.7074994,http://www.ironhillbrewery.com
Iron Hill Brewery & Restaurant - Wilmington,brewpub,Wilmington,DE,19801-5141,NULL,NULL,http://www.ironhillbrewery.com
Midnight Oil Brewing Company,micro,Newark,DE,19702-3348,NULL,NULL,http://www.midnightoilbrewing.com
Midnight Oil Brewing,micro,Newark,DE,19702,NULL,NULL,NULL
Mispillion River Brewing,micro,Milford,DE,19963,-75.45083871,38.93078885,http://www.mispillionriverbrewing.com
Pizza By Elizabeths,brewpub,Greenville,DE,19807-2321,-75.59566848,39.77560249,http://www.pizzabyelizabeths.com
Revelation Craft Brewing Co,micro,Rehoboth Beach,DE,19971-1112,NULL,NULL,http://Www.revbeer.com
Stewart's Brewing Co,brewpub,Bear,DE,19701-3026,NULL,NULL,http://www.stewartsbrewingcompany.com
Stitch House Brewery,brewpub,Wilmington,DE,19801,-75.54908716,39.7438473,http://www.stitchhousebrewery.com
Twin Lakes Brewing Co,micro,Wilmington,DE,19804-2445,NULL,NULL,http://www.twinlakesbrewingcompany.com
Volunteer Brewing Company,micro,Middletown,DE,19709-1040,-75.71959161,39.44942786,http://www.VolunteerBrewing.com
Wilmington Brew Works,planning,Wilmington,DE,19802-2542,NULL,NULL,http://www.wilmingtonbrewworks.com
Clermont Brewing Company,planning,Clermont,FL,34711-2108,NULL,NULL,NULL
King Fox Brewery,planning,Hialeah,FL,33014-5231,NULL,NULL,NULL
26 Degree Brewing Company,micro,Pompano Beach,FL,33062-4940,-80.1224169,26.2316338,NULL
3 Daughters Brewing,micro,Saint Petersburg,FL,33712-1240,-82.6629721,27.76899022,http://www.3dbrewing.com
"3 Keys Brewing Company, LLC",brewpub,Bradenton,FL,34208-2421,-82.53393502,27.49645026,http://www.3keysbrewing.com
3 Sons Brewing Co.,proprietor,Dania,FL,33004-2870,-80.14361029,26.04800238,http://www.3sonsbrewingco.com
3rd Planet Brewing,micro,Niceville,FL,32578-2053,NULL,NULL,http://www.facebook.com/3rdplanetbrewing/
7venth Sun Brewery,micro,Dunedin,FL,34698-5762,NULL,NULL,http://www.7venthsun.com
7venth Sun Tampa,micro,Tampa,FL,33604-5660,-82.4500207,27.9495902,NULL
81Bay Brewing Company,micro,Tampa,FL,33611-3379,NULL,NULL,http://81baybrewco.com
A Little Madness Brewing Company,planning,Pensacola,FL,32514-8122,NULL,NULL,http://www.ALittleMadnessBrewingCompany.com
Aardwolf Brewing Company,micro,Jacksonville,FL,32207-8622,-81.6545197,30.3108962,http://www.aardwolfbrewing.com
Abbey Brewing Co,contract,Miami Beach,FL,33139-2441,-80.1402943,25.7890381,NULL
Alcatraz Brewing,micro,Palm Coast,FL,32137-2743,-81.19287028,29.61781196,http://www.alcatraz.beer
Alligator Brewing / Tall Paul's Brewhouse,micro,Gainesville,FL,32601-6232,-82.3222523,29.6502615,NULL
Amelia Island Brewing Company,brewpub,Fernandina Beach,FL,32034-4241,-81.46236272,30.67106045,http://www.theameliatavern.com
American Icon Brewery,brewpub,Vero Beach,FL,32960,-80.3955067,27.63674361,http://www.americaniconbrewery.com
Americana Brewery,planning,Fort Lauderdale,FL,33328-1606,NULL,NULL,NULL
Ancient City Brewing Co.,micro,Saint Augustine,FL,32092-0690,NULL,NULL,http://www.ancientcitybrewing.com
"Angry Chair Brewing, LLC.",micro,Tampa,FL,33604-6007,-82.459381,28.005127,http://www.angrychairbrewing.com
Anheuser-Busch Inc â Jacksonville,large,Jacksonville,FL,32218-5546,-81.6481156,30.4319552,NULL
Ankrolab Brewing Company,planning,Naples,FL,34112-6363,NULL,NULL,http://ankrolab.com
Arkane Aleworks,micro,Largo,FL,33771-2467,NULL,NULL,http://www.arkanebeer.com
Atlantic Beach Brewing Company,micro,Atlantic Beach,FL,32233-3946,NULL,NULL,http://www.atlanticbeachbrewingcompany.com
Backyard Barn Winery and Microbrewery,micro,Wildwood,FL,34785-8594,NULL,NULL,http://www.backyardbardwinery.com
Bangin' Banjo Brewing Company,micro,Pompano Beach,FL,33069-5909,NULL,NULL,http://www.banginbanjobrewing.com
Barrel of Monks Brewing,micro,Boca Raton,FL,33487-2789,NULL,NULL,http://www.barrelofmonks.com
Barrie Brewing Company,planning,Gainesville,FL,32607-4807,NULL,NULL,NULL
Bastet Brewing,planning,Tampa,FL,33613-1254,NULL,NULL,http://www.bastetbrewing.com
Bay Brewing Company,planning,Miami,FL,33130-3488,NULL,NULL,NULL
BeachFly Brewing Company,planning,Indian Harbour Beach,FL,32937,NULL,NULL,NULL
Beachside Brew Pub,micro,Ormond Beach,FL,32176-3630,-81.057048,29.326634,http://www.beachsidebrewpub.com
Beer Religion,planning,Winter Park,FL,32792-5111,NULL,NULL,NULL
Big Bear Brewing Co,brewpub,Coral Springs,FL,33071-6031,-80.2505088,26.2992083,http://www.bigbearbrewingco.com
Big Blue Brewing,brewpub,Cape Coral,FL,33904-9168,-81.95242639,26.56445895,http://www.bigbluebrewing.com
Big River Grille & Brewing Works - Disney,brewpub,Lake Buena Vista,FL,32830-8442,NULL,NULL,http://www.craftworksrestaurants.com
Big Storm Brewing,micro,Cape Coral,FL,33904-9046,-81.9557454,26.5609342,NULL
Big Storm Brewing Co.,micro,Clearwater,FL,33762-4604,NULL,NULL,http://www.bigstormbrewery.com
Big Storm Brewing,micro,Odessa,FL,33556,-82.62618762,28.19192178,NULL
Big Top Brewing Company,micro,Sarasota,FL,34232-6224,NULL,NULL,http://Bigtopbrewing.com
Biscayne Bay Brewing Co,micro,Miami,FL,33122-1631,NULL,NULL,NULL
Blackadder Brewing Company,micro,Gainesville,FL,32607-6014,NULL,NULL,http://www.blackadderbrewing.com
Bob Loblaw Brewing,planning,Miami,FL,33179,NULL,NULL,http://www.bobloblawbrewing.com
Bog Brewing Company,micro,Saint Augustine,FL,32084-4144,-81.3267969,29.8908994,http://www.bogbrewery.com
Bold City Brewery,micro,Jacksonville,FL,32204-3004,NULL,NULL,http://www.boldcitybrewery.com
Bold City Brewery,micro,Jacksonville,FL,32202-3414,-81.656519,30.326002,http://www.boldcitybrewery.com
Bone Hook Brewing Company,micro,Naples,FL,34110-1454,NULL,NULL,http://www.bonehookbrewing.com
Bone Island Brewing,micro,Key West,FL,33040-6926,-81.79651464,24.56141707,http://www.boneislandbrewing.com
Bousa Brewing Company,micro,Miami,FL,33138-5315,-80.18941017,25.8414587,http://www.bousabrewing.com
Bowigens Beer Company,micro,Casselberry,FL,32707-5722,NULL,NULL,http://www.bowigens.com
GRITS Brewing,planning,Chamblee,GA,30341-2024,NULL,NULL,NULL
400 North Brewing,planning,Sugarhill,GA,30518-7916,NULL,NULL,http://400northbrewing.com
5 Seasons Brewing Co - Prado,brewpub,Sandy Springs,GA,30342-1150,-84.3796711,33.9078086,http://www.5seasonsbrewing.com
5 Seasons Brewing Co - Westside,brewpub,Atlanta,GA,30318-0683,NULL,NULL,http://www.5seasonsbrewing.com
6 Bridges Brewing,planning,Johns Creek,GA,30097,NULL,NULL,http://www.sixbridgesbrewing.com
Abide Brewing Company,micro,Newnan,GA,30263-5802,-84.76356641,33.40257035,http://www.abidebrewing.com
Akademia Brewing Company,brewpub,Athens,GA,30606-0600,-83.47153754,33.94270289,http://www.AkademiaBC.com
Anheuser-Busch Inc â Cartersville,large,Cartersville,GA,30121-7217,NULL,NULL,NULL
Arches Brewing,micro,Hapeville,GA,30354-1439,NULL,NULL,NULL
BlueTarp Brewing Co,micro,Decatur,GA,30030-5365,-84.2835622,33.7740425,http://www.bluetarpbrew.com
Braselton Brewing Company,planning,Braselton,GA,30517,NULL,NULL,NULL
Buck Bald Brewing Corporation,planning,Blue Ridge,GA,30513,NULL,NULL,http://www.buckbaldbrewing.com
Burnt Hickory Brewery,micro,Kennesaw,GA,30144-5653,NULL,NULL,http://www.burnthickorybrewery.com
Cannon Brewpub,brewpub,Columbus,GA,31901-5256,NULL,NULL,NULL
Chattabrewchee Southern Brewhouse,micro,West Point,GA,31833-1506,-85.18536152,32.87625763,http://www.chattabrewchee.com
Cherokee Brewing + Pizza Company,brewpub,Dalton,GA,30720,-84.96940721,34.76976664,http://www.cherokeebrewingandpizza.com
Coastal Empire Beer Co,micro,Savannah,GA,31405-1660,NULL,NULL,http://www.coastalempirebeer.com
Creature Comforts Brewing Co.,regional,Athens,GA,30601-2727,-83.380087,33.95919871,http://www.creaturecomfortsbeer.com
Creature Comforts Production Facility At Southern Mill,regional,Athens,GA,30601,NULL,NULL,NULL
Currahee Brewing Company,micro,Alpharetta,GA,30009,-84.2967826,34.0711104,NULL
Dry County Brewing Company,micro,kennesaw,GA,30144,NULL,NULL,http://www.DryCountyBrewCo.com
Eagle Creek Brewing Company,micro,Statesboro,GA,30458-7162,NULL,NULL,http://www.eaglecreekbrewingco.com
Etowah Brewery,planning,Dahlonega,GA,30533,NULL,NULL,NULL
EuroBevs,contract,Atlanta,GA,30339-4515,NULL,NULL,http://www.eurobevs.com
Eventide Brewing Co,micro,Atlanta,GA,30315-2014,-84.37706291,33.72670205,http://www.eventidebrewing.com
Fannin Brewing,micro,Blue Ridge,GA,30513-4514,-84.31707477,34.87142613,http://www.fanninbrewingcompany.com
Fire Maker Brewing Company,micro,Atlanta,GA,30318,-84.41943924,33.80024037,https://www.firemakerbeer.com
Firewater Brewing Company,planning,Kennesaw,GA,30144,NULL,NULL,NULL
From The Earth Brewing Company,brewpub,Roswell,GA,30076,NULL,NULL,http://www.ftebrewing.com
Gate City Brewing Company,micro,Roswell,GA,30075-4289,-84.36395307,34.02293426,http://www.gatecitybrewingco.com
Georgia Beer Co,planning,Valdosta,GA,31601-9017,NULL,NULL,http://www.georgiabeerco.com
Glover Park Brewery,planning,Marietta,GA,30060,NULL,NULL,NULL
Good Word Brewing & Public House,brewpub,Duluth,GA,30096-3261,NULL,NULL,http://www.goodwordbrewing.com
Gordon Biersch Brewery Restaurant - Atlanta,brewpub,Atlanta,GA,30305-2425,-84.3620936,33.8503143,http://www.craftworksrestaurants.com
Grumpy Old Men Brewing,micro,Blue Ridge,GA,30513-8506,-84.33050832,34.85747136,http://www.grumpyoldmenbrewing.com
Hop Soul Brewery,planning,Brunswick,GA,31520,NULL,NULL,http://www.hopsoulbrewery.com
Hopstix,brewpub,Chamblee,GA,30341-2444,NULL,NULL,http://www.hopstix.com
Ironmonger Brewing,micro,Marietta,GA,30067-9223,-84.48696353,33.91959382,http://www.ironmongerbrewing.com
Ironwood Creek,planning,Evans,GA,30809-8239,NULL,NULL,NULL
Jailhouse Brewing Co,micro,Hampton,GA,30228-5575,-84.282374,33.387534,http://www.jailhousebrewing.com
Jekyll Brewing,micro,Alpharetta,GA,30005-2051,-84.2536638,34.0816562,http://www.jekyllbrewing.com
"Johnnie MacCracken's Celtic Firehouse Pub, Inc.",brewpub,Marietta,GA,30060-1985,-84.5417592,33.9371282,http://www.johnniemaccrackens.com
Left Nut Brewing Co,micro,Gainesville,GA,30504-7168,-83.84759634,34.25442345,http://www.leftnutbrewing.com
Line Creek Brewing,micro,Peachtree City,GA,30269,NULL,NULL,http://www.linecreekbrewing.com
Macon Beer Company,proprietor,Macon,GA,31201-3274,-83.630297,32.828235,http://www.maconbeer.com
Mandatory Fun Brewing,planning,Marietta,GA,30064,NULL,NULL,http://www.vikingalchemist.com
Max Lager's Wood Fired Grill & Brewery,brewpub,Atlanta,GA,30308-3210,-84.38706074,33.76333225,http://www.maxlagers.com
MillerCoors Brewing Co - Albany,large,Albany,GA,31705-2109,-84.08203126,31.58549343,NULL
Monday Night Brewing,micro,Atlanta,GA,30318-4230,-84.40989212,33.79480405,http://www.mondaynightbrewing.com
Monday Night Brewing - Garage,micro,Atlanta,GA,30310,-84.41617724,33.72906429,NULL
Aloha Beer Co,brewpub,Honolulu,HI,96813-5110,-157.857248,21.301249,http://www.alohabeer.com
Beer Lab HI,micro,Honolulu,HI,96826-1537,-157.8218784,21.29214406,http://www.beerlabhi.com
Big Island Brewhaus,brewpub,Kamuela,HI,96743-7309,-155.661471,20.025552,http://www.bigislandbrewhaus.com
Gordon Biersch Brewery Restaurant - Honolulu,closed,Honolulu,HI,96813-4815,-157.86622,21.306704,http://www.gordonbiersch.com/restaurant
Hana Koa Brewing Company,brewpub,Honolulu,HI,96814,-157.852894,21.297494,http://www.hanakoabrewing.com
Hawaii Nui Brewing,closed,Hilo,HI,96720-5074,-155.0697885,19.70587596,http://www.hawaiinuibrewing.com
Hilo Brewing Co,micro,Hilo,HI,96720-5074,-155.0697885,19.70587596,https://hilobrewingco.com
Home of the Brave Brewing Company,closed,Honolulu,HI,96814-3309,-157.8535966,21.29875689,http://www.hotbbc.com
Honolulu BeerWorks,brewpub,Honolulu,HI,96813-5531,-157.860634,21.29690603,http://www.honolulubeerworks.com
Inu Island Ales,micro,Kaneohe,HI,96744,-157.805414,21.416279,http://www.inuislandales.com
Kauai Beer Company,brewpub,Lihue,HI,96766,-159.3647876,21.9722854,http://www.kauaibeer.com
Kauai Island Brewery,brewpub,Eleele,HI,96705,-159.586522,21.901641,http://www.kauaiislandbrewing.com
Kohola Brewery,micro,Lahaina,HI,96761-1507,-156.653963,20.845329,http://www.koholabrewery.com
Kona Brewing Co,regional,Kailua Kona,HI,96740-1617,-155.997661,19.643069,http://www.konabrewingco.com
Lanikai Brewing Co,micro,Kailua,HI,96734,-157.7403266,21.39044286,https://www.lanikaibrewing.com
Maui Brewing Co - Kihei,brewpub,Kihei,HI,96753-6947,-156.4402411,20.74961566,http://www.mauibrewingco.com
Maui Brewing Co - Lahaina,brewpub,Lahaina,HI,96761-9272,-156.653963,20.845329,http://www.mauibrewingco.com
Maui Brewing Co - Waikiki,brewpub,Honolulu,HI,96815,-157.826624,21.278349,https://www.mauibrewingco.com
Ola Brew Co.,micro,Kailua Kona,HI,96740-3151,-155.99806,19.646861,http://www.olabrewco.com
Stewbum,brewpub,Honolulu,HI,96817-5109,-157.8634762,21.31171513,http://www.stewbumandstonewall.com
Taps and Apps,brewpub,Mililani,HI,96789-6311,-158.002414,21.467355,http://www.tapsandappsbrewpub.com
Waikiki Brewing Company,brewpub,Honolulu,HI,96815-1851,-157.8334964,21.2858755,http://www.waikikibrewing.com
"Waikiki Brewing Company, Kaka'ako",micro,Honolulu,HI,96813-5203,-157.8559271,21.29964432,NULL
Dimensional Brewing Co.,planning,Dubuque,IA,52001,NULL,NULL,http://www.dimensionalbrewing.com
5 Alarm Brewing Co,micro,Lake Mills,IA,50450,-93.53398788,43.41926615,NULL
515 Brewing Co,micro,Clive,IA,50325-1271,-93.7228408,41.599992,http://www.515brewing.com
7 Hills Brewing Company,brewpub,Dubuque,IA,52001-4932,-90.6635263,42.5045556,http://www.7hillsbrew.com
Albia Brewing Co,brewpub,Albia,IA,52531-2032,-92.8073711,41.02718903,http://www.albiabrewingcompany.blogspot.com
Alluvial Brewing Company,micro,Ames,IA,50014-9316,NULL,NULL,http://www.alluvialbrewing.com
Backpocket Brewing Co,micro,Coralville,IA,52241-2208,-91.55981337,41.68139484,http://www.backpocketbrewing.com
BackRoad Brewery,micro,Carlisle,IA,50047,-93.48531767,41.498501,http://www.backroadbeer.com
Barn Town Brewing Co.,brewpub,West Des Moines,IA,50266-1888,-93.8385143,41.5996472,NULL
Bent River Brewing Co,brewpub,Burlington,IA,52601,-91.1052085,40.8106128,http://www.burlingtonbentriver.com
Big Grove Brewery,micro,Iowa City,IA,52240-4507,-91.53189828,41.64713299,http://www.biggrovebrewery.com
Big Grove Brewery & Tap Room,brewpub,Iowa City,IA,52240-4507,-91.53189828,41.64713299,NULL
Big Rack Brew Haus,micro,Winterset,IA,50273-8113,NULL,NULL,http://www.bigrackbrewhaus.com
Big's BBQ Brewpub,brewpub,Mount Vernon,IA,52314,-91.41772002,41.92299939,http://www.bigsbbqmv.com
Boone Valley Brewing Co,micro,Boone,IA,50036-2818,-93.88096265,42.062643,http://www.boonevalleybrewing.com
Boot N Flute Brewery / Guild Wurst Tavern,brewpub,Coralville,IA,52241,-91.56271744,41.66788468,http://www.guildwursttavern.com
Brioux City Brewery,micro,Sioux City,IA,51105,-96.39640025,42.50441425,http://www.briouxcitybrewery.com
Carroll Brewing Co.,micro,Carroll,IA,51401-2743,-94.86534008,42.06385868,http://www.carrollbrewing.com
Catfish Charlies / Catfish Creek Brew Pub,brewpub,Dubuque,IA,52001-2306,-90.65372886,42.51225898,http://www.catfishcharliesdubuque.com
Clock House Brewing,micro,Cedar Rapids,IA,52401,-91.665354,41.973813,http://www.clockhousebrewing.com
Confluence Brewing Co,micro,Des Moines,IA,50315-1055,NULL,NULL,http://www.confluencebrewing.com
Contrary Brewing Co,micro,Muscatine,IA,52761-3150,-91.05121455,41.41700522,http://www.contrarybrewing.com
Court Avenue Brewing Co,brewpub,Des Moines,IA,50309-2230,NULL,NULL,http://www.courtavebrew.com
Crawford Brew Works,micro,Bettendorf,IA,52722,-90.48344378,41.55924419,NULL
Deb's Brewtopia,micro,Elkader,IA,52043,-91.40608353,42.85486681,http://www.debsbrewtopia.com
Depot Deli and Lounge,brewpub,Shenandoah,IA,51601-1158,-95.376823,40.765042,http://www.depotdeli.com
Drink Me Brewing,micro,Sibley,IA,51249-1812,-95.7506989,43.39942206,http://www.drinkmebrewing.com
Dubuque Star Brands / Otter Tail Brewery,contract,Muscatine,IA,52761-5543,-91.02937536,41.43346737,NULL
Exile Brewing,micro,Des Moines,IA,50309-3420,-93.63702159,41.5830167,http://www.exilebrewing.com
Fat Hill Brewing,micro,Mason City,IA,50401-3250,-93.20096509,43.15203459,http://FatHillBrewing.com
Fenceline Beer Lab,planning,Huxley,IA,50124-9311,NULL,NULL,NULL
Fenders Brewing Company,micro,Polk City,IA,50226-2297,-93.71392,41.77079882,http://fendersbrewing.com
Firetrucker Brewery,micro,Ankeny,IA,50023-2615,-93.60984369,41.7299268,http://www.firetrucker.com
Five Cities Brewing,micro,Bettendorf,IA,52722,-90.50126378,41.57430518,http://www.fivecitiesbrewing.com
Flix Brewhouse,brewpub,Des Moines,IA,50310-1305,-93.6997831,41.6306427,NULL
Fox Brewing,micro,West Des Moines,IA,50265-4410,-93.71821038,41.56970863,http://www.foxbrewco.com
Franklin Street Brewing Company,micro,Manchester,IA,52057-2121,-91.45777929,42.48329324,http://www.franklinstreetbrewing.com
Front Street Brewery - IA,brewpub,Davenport,IA,52801-1609,-90.572491,41.520329,http://www.frontstreetbrew.com
Granite City Food & Brewery (#4),brewpub,Clive,IA,50325-8219,-93.795293,41.600494,http://www.gcfb.net
Granite City Food & Brewery (#5),brewpub,Cedar Rapids,IA,52402-3211,NULL,NULL,http://www.gcfb.net
Granite City Food & Brewery (#6),brewpub,Davenport,IA,52807-3872,-90.51357975,41.57457211,http://www.gcfb.net
Granite City Food & Wort House,micro,Ellsworth,IA,50075,-93.57473798,42.31330919,http://www.gcfb.net
Great River Brewery,micro,Davenport,IA,52801-1702,-90.57063937,41.52138805,http://www.greatriverbrewery.com
Green Tree Brewery,micro,Le Claire,IA,52753,NULL,NULL,NULL
Iowa Brewing,micro,Cedar Rapids,IA,52401-2012,-91.66212463,41.97421739,http://www.iowabrewing.beer
Iowa River Brewing Company,micro,Marshalltown,IA,50158-5803,-92.91450419,42.05061076,http://www.iowariverbrewing.com
Jackson Street Brewing,micro,Sioux City,IA,51101-1301,-96.40323429,42.49533849,NULL
Jubeck New World Brewing,micro,Dubuque,IA,52001-4802,-90.66770404,42.50362393,http://www.jubeckbrewing.com
Kalona Brewing Company,brewpub,Kalona,IA,52247,-91.7075553,41.4833131,http://www.kalonabrewing.com
Keg Creek Brewing Company,micro,Glenwood,IA,51534-1755,-95.7356912,41.0473453,http://www.kegcreekbrewing.com
10 Barrel Brewing Co - Boise,large,Boise,ID,83702-5857,-116.202929,43.618516,http://www.10barrel.com
2C Family Brewing Co.,micro,Nampa,ID,83651-3957,-116.559282,43.578989,NULL
Barbarian Brewing - Downtown Taproom,micro,Boise,ID,83702-5705,-116.206883,43.618407,https://barbarianbrewing.com
Barbarian Brewing - Garden City,micro,Garden City,ID,83714-1457,-116.272141,43.646318,http://www.barbarianbrewing.com
Bear Island Brewing Company,micro,Boise,ID,83704-7739,-116.260854,43.620592,http://www.bearislandbrewing.com
Bertrams Salmon Valley Brewery,closed,Salmon,ID,83467-4246,-113.893655,45.174557,http://www.bertramsbrewery.com
Boise Brewing,micro,Boise,ID,83702-7642,NULL,NULL,http://www.boisebrewing.com
Bombastic Brewing,contract,Hayden,ID,83835,NULL,NULL,http://www.bombasticbrewing.com
Broken Horn Brewing Company,micro,McCall,ID,83638,-116.104522,44.896502,http://www.brokenhornbrewing.com
Clairvoyant Brewing,micro,Boise,ID,83702-4628,-116.225417,43.622812,http://www.clairvoyantbrewing.com
Cloud 9 Brewery,brewpub,Boise,ID,83702-3923,-116.2116802,43.62441063,http://www.cloud9brewery.com
County Line Brewing,micro,Garden City,ID,83714-1903,-116.295667,43.655342,http://www.countylinebrewing.com
Crescent Brewery,micro,Nampa,ID,83651-4331,-116.5550949,43.57676253,http://www.crescentbeer.com
Crooked Fence Brewing,micro,Garden City,ID,83714,-116.268704,43.646739,http://www.crookedfencebrewing.com
Daft Badger Brewing,brewpub,Coeur D Alene,ID,83814-3403,-116.783116,47.692323,https://www.facebook.com/daftbadgerbrewing
Downdraft Brewing Co,closed,Post Falls,ID,83854-,-116.9573256,47.715079,http://www.downdraftbrewing.com
Edge Brewing Company,brewpub,Boise,ID,83704-8374,NULL,NULL,http://www.edgebrew.com
Edge Brewing Company - Pub on 10th,brewpub,Boise,ID,83702-5773,-116.206021,43.623807,http://www.edgebrew.com
Grand Teton Brewing Co,micro,Victor,ID,83455-5500,-111.10507,43.593522,http://grandtetonbrewing.com
Guns & Oil Brewery,micro,Boise,ID,83714,-116.2389395,43.62136196,http://www.gunsandoil.com
Heaven's Gate Brewery,micro,Riggins,ID,83549,-116.314621,45.422235,NULL
Highlands Hollow Brewhouse,brewpub,Boise,ID,83702-0962,-116.208703,43.643125,http://www.highlandshollow.com
Hunga Dunga Brewing,brewpub,Moscow,ID,83843-2065,-117.0027808,46.7344955,http://www.hungadungabrewing.com
Idaho Brewing Co,micro,Idaho Falls,ID,83402-3965,-112.0459845,43.48724009,http://www.idahobrewing.com
Jim Dandy Brewing,micro,Pocatello,ID,83201,-112.4482702,42.8663043,http://www.jimdandybrewing.com
Kootenai River Brewing Co,brewpub,Bonners Ferry,ID,83805-1901,-116.3105154,48.6965721,http://kootbrew.com
Laughing Dog Brewing,micro,Ponderay,ID,83852-9823,-116.5464216,48.3050088,http://www.laughingdogbrewing.com
Loose Screw Beer Co.,micro,Garden City,ID,83714-4866,-116.253602,43.634307,https://www.loosescrew.beer
Lost Grove Brewing,micro,Boise,ID,83706-2827,NULL,NULL,http://www.lostgrovebrewing.com
Mad Bomber Brewing Company,micro,Hayden,ID,83835-8278,-116.7867267,47.75597167,http://www.madbomberbrewing.com
Mad Swede Brewing,micro,Boise,ID,83709-8028,-116.273944,43.57693444,http://www.madswedebrewing.com
Magic Valley Brewing,brewpub,Buhl,ID,83316-1625,-114.7610528,42.60009514,NULL
Matchstick Brewing Company,closed,Coeur D Alene,ID,83815,NULL,NULL,http://www.matchstickbrewing.com
McCall Brewing Co,brewpub,McCall,ID,83638-3806,-116.097991,44.904411,http://www.mccallbrew.com
MickDuff's Brewing Co,micro,Sandpoint,ID,83864-1404,-116.54764,48.27597,http://www.mickduffs.com
Moscow Brewing Company,micro,Moscow,ID,83843-9701,-117.003869,46.740638,https://moscowbrewing.com/index.html
Mother Earth Brew Co,micro,Nampa,ID,83687-3038,-116.56303,43.597987,https://www.motherearthbrewco.com/nampa
North Idaho Mountain Brew / City Limits Pub,brewpub,Wallace,ID,83873-5021,-115.922925,47.475441,https://citylimitspubandgrill.com
Paragon Brewing,proprietor,Coeur D Alene,ID,83815-7329,-116.787369,47.725118,http://www.paragonbrewing.com
Payette Brewing Co,micro,Boise,ID,83702-5219,-116.2145033,43.61301363,http://www.payettebrewing.com
Portneuf Valley Brewing Co,brewpub,Pocatello,ID,83201-6557,-112.4431819,42.85998871,http://www.portneufvalleybrewing.com
Post Falls Brewing,micro,Post Falls,ID,83854-9537,-116.9479708,47.7062358,http://postfallsbrewing.com
Powderhaus Brewing,micro,Garden City,ID,83714-2008,-116.302435,43.657494,http://www.powderhausbrewing.com
Radio Brewing Company,brewpub,Kellogg,ID,83837,-116.1225116,47.53391643,http://www.radiobrewingcompany.com
RAM Restaurant and Brewery - Boise,brewpub,Boise,ID,83712-7715,NULL,NULL,http://www.theram.com
Rants And Raves Brewery,brewpub,Moscow,ID,83843-2065,-117.0027808,46.7344955,https://www.rantsravesbrewery.com
River Bend Brewing,micro,Hailey,ID,83333-,NULL,NULL,NULL
River of No Return Brewing Co,closed,Challis,ID,83226,-114.224139,44.50008,NULL
Salmon River Brewery,brewpub,McCall,ID,83638-4132,-116.097682,44.911663,http://www.salmonriverbrewery.com
Sawtooth Brewery,brewpub,Hailey,ID,83333-7027,-114.319764,43.522311,http://www.sawtoothbrewery.com
1905 Brewing Company,micro,Assumption,IL,62510-8504,-89.0503635,39.5172564,http://1905BrewingCompany.com
350 Brewing Co,brewpub,Tinley Park,IL,60477-3933,-87.79160288,41.55864726,http://www.350brewing.com
4204 Main Street Brewing Co,brewpub,Belleville,IL,62226,-90.02053343,38.53796122,NULL
5 Rabbit Cerveceria Inc,micro,Chicago,IL,60638-6129,-87.6572069,41.7595502,http://www.5rabbitbrewery.com
51st Ward Beer Company,contract,Westmont,IL,60559-1512,-87.981157,41.804494,NULL
5770 Brewery,micro,Teutopolis,IL,62467-1355,-88.47806652,39.13142194,http://www.5770brewery.com
"718BrewCafe, LLP",brewpub,Metropolis,IL,62960-1634,-88.73129158,37.15373334,http://www.718BrewCafe.com
9th Hour Brewing Company LLC,planning,Spring Grove,IL,60081-9459,NULL,NULL,NULL
Afterthought Brewing Company,micro,Lombard,IL,60148-1215,-88.02234574,41.90549742,http://afterthoughtbrewing.com
Alarmist Brewing Co,micro,Chicago,IL,60646-6072,NULL,NULL,http://alarmistbrewing.com
Aleman Brewing,micro,Chicago,IL,60641-4434,-87.74301213,41.94087994,http://www.alemanchicago.com
All Rise Brewing Co,brewpub,Chicago,IL,60607-1401,-87.6667328,41.8864021,http://www.allrisebrewing.com
Alter Brewing Company,micro,Downers Grove,IL,60515-2234,NULL,NULL,http://www.alterbrewing.com
"Ardent Spirits, Inc",planning,Collinsville,IL,62234,NULL,NULL,http://Ardentspirits.com
Argus Brewery,micro,Chicago,IL,60628-5007,-87.61206845,41.68854885,http://www.argusbrewery.com
Around the Bend Beer Co.,contract,Oak Park,IL,60302-1538,-87.79493034,41.90015593,http://www.atbbeerco.com
Arrowhead Ales Brewing Company,brewpub,New Lenox,IL,60451-4826,-87.95726941,41.48205844,http://www.arrowheadales.com
Ballast Point Brewing Company,planning,Chicago,IL,60607,NULL,NULL,NULL
Band Of Bohemia,brewpub,Chicago,IL,60640-4408,-87.6750827,41.9675954,http://bandofbohemia.com
BBGB Brewery And Hop Farm,brewpub,North Aurora,IL,60542-1674,NULL,NULL,http://www.eathardware.com/
Bearded Owl Brewing,brewpub,Peoria,IL,61602-5121,NULL,NULL,NULL
Begyle Brewing,micro,Chicago,IL,60613-3892,NULL,NULL,http://www.begylebrewing.com
Belly Up Beer Company,micro,Western Springs,IL,60558,NULL,NULL,http://www.bellyupbeer.com
Bent River Brewing Co,brewpub,Moline,IL,61265-1335,-90.51736337,41.50590516,http://www.bentriverbrewing.com
Bent River Brewing Co Production & Tasting Room,micro,Rock Island,IL,61201-8928,-90.5669283,41.5076339,http://www.bentriverbrewery.com
Big Muddy Brewing Co,micro,Murphysboro,IL,62966-3938,-89.33204055,37.78182292,http://www.bigmuddybrewing.com
Big Thorn Farm and Brewery,micro,Georgetown,IL,61846-7594,NULL,NULL,http://www.bigthornfarm.com
Birreria @ Eataly,brewpub,Chicago,IL,60611-2701,-87.6262332,41.89209845,http://www.eataly.com
Black Horizon Brewing Company,micro,Willowbrook,IL,60527-5545,NULL,NULL,http://www.blackhorizonbrewing.com
Blind Pig Brewery,brewpub,Champaign,IL,61820-4023,-88.24341082,40.11714609,http://www.blindpigbrewery.com
Blue Cat Brew Pub,brewpub,Rock Island,IL,61201-8708,-90.5145797,41.51094347,http://www.bluecatbrewpub.com
Blue Island Beer Co,micro,Blue Island,IL,60406-2969,NULL,NULL,http://www.blueislandbeerco.com
Blue Nose Brewery,micro,Hodgkins,IL,60525-4126,-87.85833464,41.77904908,http://www.bluenosebrewery.com
Border Town Pub,brewpub,Momence,IL,60954-1504,-87.66261835,41.16238275,http://www.BorderTownPub.com
BrickStone Brewery,micro,Bourbonnais,IL,60914-2196,NULL,NULL,NULL
BrickStone Brewery Brewpub,brewpub,Bourbonnais,IL,60914-2319,-87.881654,41.162675,http://www.brickstonebrewery.com
Buchanan Craft LLC,planning,Chicago,IL,60647-9735,NULL,NULL,NULL
BuckleDown Brewing,micro,Lyons,IL,60534-1626,-87.8034082,41.8083636,http://buckledownbrewing.com
Buffalo Creek Brewing,micro,Long Grove,IL,60047-9613,-87.99776222,42.17719457,http://www.facebook.com/buffalocreekbrewing
Burning Bush Brewery,planning,Wilmette,IL,60091-2703,NULL,NULL,NULL
Burnt City Brewing,micro,Chicago,IL,60614-1320,-87.65722732,41.93185255,http://www.burntcitybrewing.com
Buzz Bomb Brewing Co,micro,Springfield,IL,62701,-89.65050394,39.8005279,http://www.buzzbombbrewingco.com
Byers Brewing Company,planning,DeKalb,IL,60115-4661,NULL,NULL,NULL
Carlyle Brewing Co,brewpub,Rockford,IL,61104-1010,-89.09053,42.2689989,http://www.carlylebrewing.com
Cary Ale House,brewpub,Cary,IL,60013-2786,NULL,NULL,http://caryalehousebrewing.com
Chicago Beer Company,contract,Chicago,IL,60607-1619,-87.65589165,41.88434,http://www.chicagobeerco.com
Church Street Brewing Company,micro,Itasca,IL,60143-1857,NULL,NULL,http://www.churchstreetbrew.com
Corridor Brewery & Provisions,brewpub,Chicago,IL,60657-1420,-87.6643524,41.9447594,NULL
Cruz Blanca Brewery,brewpub,Chicago,IL,60607-2208,-87.6501403,41.8846013,http://www.cruzblanca.com
Crystal Lake Brewing Co.,micro,Crystal Lake,IL,60014-4433,-88.316204,42.2413125,NULL
10-56 Brewing Company,micro,Knox,IN,46534,-86.627954,41.289715,NULL
18th Street Brewery,micro,Gary,IN,46403-2871,-87.26887786,41.59928343,http://www.18thstreetbrewery.com
18th Street Brewery,micro,Hammond,IN,46320-1817,-87.517422,41.61556796,NULL
450 North Brewing Company @ Simmons Winery,brewpub,Columbus,IN,47203-8106,NULL,NULL,http://www.450northbrewing.com
95ate5 Brewpub,brewpub,Saint John,IN,46373,-87.46380305,41.44400246,http://www.95ate5.com
Auburn Brewing Company,planning,Auburn,IN,46706,NULL,NULL,NULL
Back Alley Brewing Co,micro,Goshen,IN,46526-3722,-85.83457862,41.58461971,NULL
Back Road Brewery,micro,La Porte,IN,46350-3216,-86.72649137,41.6118882,http://www.backroadbrewery.com
Backstep Brewing Company,micro,Crawfordsville,IN,47933-1708,-86.89998607,40.04207712,http://www.backstepbrewingcompany.com
Bad Dad Brewery,micro,Fairmount,IN,46928,NULL,NULL,http://www.baddadbrewery.com
Bare Hands Brewery,micro,Granger,IN,46530-4309,NULL,NULL,http://www.barehandsbrewbrewery.com
Barley Island Brewing Co,brewpub,Noblesville,IN,46060-2532,NULL,NULL,http://www.barleyisland.com
Basket Case Brewing Co,brewpub,Jasper,IN,47546-2310,-86.92850063,38.39736355,http://www.basketcasebeer.com
Bier Brewery and Taproom,micro,Indianapolis,IN,46220-4816,NULL,NULL,http://www.bierbrewery.com
Big Leaf Brewing,micro,West Terre Haute,IN,47885-9626,NULL,NULL,NULL
Big Lug Canteen,brewpub,Indianapolis,IN,46240-1911,-86.079957,39.912628,NULL
Birdboy Brewing Co,micro,Fort Wayne,IN,46825-5304,-85.13900142,41.12187792,http://www.birdboybrewing.com
Black Acre Brewing Co,brewpub,Indianapolis,IN,46219-6428,-86.1452662,39.7668669,http://www.blackacrebrewing.com
Black Circle Brewing Co,micro,Indianapolis,IN,46205,-86.123944,39.8398813,http://www.blackcirclebrewing.com
Black Swan Brewpub,brewpub,Plainfield,IN,46168-7484,-86.374141,39.674729,http://www.blackswanbrewpub.com
Blind Owl Brewery,brewpub,Indianapolis,IN,46220-5228,NULL,NULL,http://www.blindowlbrewery.com
Bloomington Brewing Co,brewpub,Bloomington,IN,47407-6955,-86.51136673,39.1720504,NULL
Bloomington Brewing Co - Production Facility,micro,Bloomington,IN,47404,NULL,NULL,http://www.bbcbloomington.com
Books & Brews,brewpub,Indianapolis,IN,46256-1076,NULL,NULL,http://www.booksnbrews.com
Brew Link Brewing,proprietor,Plainfield,IN,46168-9659,NULL,NULL,http://www.brewlinkbrewing.com
Broad Ripple Brewing Co,brewpub,Indianapolis,IN,46220-1674,NULL,NULL,NULL
Brokerage Brewing Company,micro,West Lafayette,IN,47906-1404,-86.91414689,40.45361124,http://www.brokeragebrewing.com
Brugge Brasserie,brewpub,Indianapolis,IN,46220-,NULL,NULL,http://www.bruggebrasserie.com
Bulldog Brewing,brewpub,Whiting,IN,46394-1714,-87.4951351,41.679491,http://www.bulldogbrewingco.com
Burn'Em Brewing,brewpub,Michigan City,IN,46360-1911,-86.82979191,41.73849717,http://www.burnembrewing.com
Byway Brewing Company,brewpub,Hammond,IN,46323-1183,NULL,NULL,http://www.bywaybrewing.beer
Cannon Ball Brewing Company,brewpub,Indianapolis,IN,46202-1813,-86.14245603,39.79046798,http://www.cannonballbrewingindy.com
Carbon Brewing Company,planning,Brazil,IN,47834-7046,NULL,NULL,http://www.carbonbrewing.com
Carson's Brewery,micro,Evansville,IN,47711-2953,NULL,NULL,http://www.carsonsbrewery.com
Cedar Creek Brewing Co.,micro,Martinsville,IN,46151-5600,NULL,NULL,http://www.drinkatthecreek.com
Centerpoint Brewing,micro,Indianapolis,IN,46202-3587,-86.13740465,39.78129031,http://www.centerpointbrewing.com
Central State Brewing,micro,Indianapolis,IN,46218,-86.099105,39.805091,http://centralstatebrewing.com
Chapman's Brewing Company,brewpub,Angola,IN,46703-1053,-85.00164782,41.64836256,http://www.chapmansbrewing.com
Chapman's Brewing Company,planning,Wabash,IN,46992-3131,NULL,NULL,http://www.chapmansbrewing.com
Chilly Water Brewing Company,brewpub,Indianapolis,IN,46203-1976,NULL,NULL,http://www.chillywaterbrewing.com
Civilian Brewing Corps,planning,Bloomington,IN,47403-9658,NULL,NULL,NULL
Crasian Brewing Co,micro,Brookston,IN,47923-8137,NULL,NULL,http://www.crasianbrewing.com
Creatures Of Habit Brewing Co,planning,Anderson,IN,46016-1749,NULL,NULL,http://facebook.com/CreaturesBrew/
Creek Bottom Brew LLC,planning,Oldenburg,IN,47036-9765,NULL,NULL,http://www.creekbottombrew.com
Crooked Ewe Brewery & Ale House,brewpub,South Bend,IN,46601-3726,NULL,NULL,http://www.crookedewe.com
Crown Brewing Co,brewpub,Crown Point,IN,46307-4058,NULL,NULL,http://www.crownbrewing.com
Danny Boy Beer Works,brewpub,Carmel,IN,46032-7292,-86.1971767,39.971556,http://www.dannyboybeerworks.com
Daredevil Brewing Company,micro,Indianapolis,IN,46224-6976,-86.64727,39.844367,http://www.daredevilbeer.com
Deer Creek Brewery,micro,Noblesville,IN,46060-,-85.9962796,40.0443978,http://www.deercreekbrewery.com
Deviate Brewing Co,micro,Indianapolis,IN,46268-2909,NULL,NULL,http://www.deviatebrewing.com
23rd Street Brewery,brewpub,Lawrence,KS,66047-2145,-95.28093353,38.9429674,http://www.brew23.com
Aero Plains Brewing,micro,Wichita,KS,67203-6114,-97.35071131,37.68455054,http://www.aeroplainsbrewing.com
Augustino Brewing,brewpub,Wichita,KS,67212-3617,-97.44431468,37.69517328,http://www.augustinobrew.com
Beaver Brewery At Mo's Place,brewpub,Beaver,KS,67525-9231,-98.667933,38.639049,http://www.mosbrewpub.com
Blind Tiger Brewery & Restaurant,brewpub,Topeka,KS,66611-2354,-95.6846745,39.0002602,http://www.blindtiger.com
Blue Skye Brewery,brewpub,Salina,KS,67401-2614,-97.608998,38.84100296,http://blueskyebrewery.com
Brew Lab,brewpub,Overland Park,KS,66204-3727,-94.66993927,38.98568748,http://www.brewlabkc.com
Center Pivot,planning,Quinter,KS,67752,NULL,NULL,NULL
Central Standard Brewing,micro,Wichita,KS,67211-1815,-97.3184245,37.6846165,http://www.drinkcsb.com
Defiance Brewing Co.,micro,Hays,KS,67601-9310,NULL,NULL,http://www.defiancebeer.com
Dodge City Brewing,brewpub,Dodge City,KS,67801-4336,-100.020307,37.754632,http://www.dodgecitybrewing.com
Fields & Ivy Brewery,planning,Olathe,KS,66061-7464,NULL,NULL,NULL
Free State Brewing Co,brewpub,Lawrence,KS,66044-2236,-95.23580916,38.97243469,http://www.freestatebrewing.com
Free State Brewing Co - Production,micro,Lawrence,KS,66046-3167,-95.22586264,38.94967284,NULL
Gella's Diner & Liquid Bread Brewing Co,brewpub,Hays,KS,67601-3603,-99.32909033,38.87174492,http://www.lbbrewing.com
Granite City Food & Brewery (#12),brewpub,Kansas City,KS,66111-1879,-94.8239539,39.1233376,http://www.gcfb.net
Granite City Food & Brewery (#13),brewpub,Olathe,KS,66062-9628,-94.75995296,38.91268389,http://www.gcfb.net
Grinderâs High Noon Brewery,brewpub,Leavenworth,KS,66048-2821,-94.91052465,39.31683651,http://info@grindershighnoon.com
Hank Is Wiser Brewery,brewpub,Cheney,KS,67025-9730,-97.7812689,37.62820924,http://www.hankiswiserbrewery.com
Happy Basset Brewing Company,micro,Topeka,KS,66614-4268,-95.7637047,39.01466361,http://www.happybassetbrewingco.com
Hopping Gnome Brewing Company,micro,Wichita,KS,67214-4212,-97.3335112,37.6860464,http://www.hoppinggnome.com
Kansas City Breweries Company,proprietor,Olathe,KS,66062-3895,NULL,NULL,http://www.KCLite.com
Kansas Territory Brewing,micro,Washington,KS,66968-1909,-97.0511838,39.81655418,NULL
Lawrence Beer Company,brewpub,Lawrence,KS,66044-2754,-95.2285539,38.9683511,http://www.lawrencebeerco.com
Limestone Beer Co,brewpub,Wichita,KS,67203-3944,NULL,NULL,http://www.limestonebeerco.com
Limitless Brewing,planning,Lenexa,KS,66215-1260,NULL,NULL,http://www.limitlessbrewing.com
Little Apple Brewing Co,micro,Manhattan,KS,66502-2838,-96.6083689,39.1915231,http://www.littleapplebrewery.com
Norsemen Brewing Co.,micro,Topeka,KS,66608-1211,-95.6663742,39.06706165,http://www.norsemenbrewingco.com
Nortons Brewing Co.,brewpub,Wichita,KS,67202-2607,-97.331744,37.68657784,http://www.nortonsbrewing.com
Radius Brewing Company,micro,Emporia,KS,66801-2859,-96.18130706,38.40521996,http://radiusbrewing@yahoo.com
Red Crow Brewing Company,micro,Olathe,KS,66062,NULL,NULL,http://www.redcrowbrew.com
River City Brewing Co,brewpub,Wichita,KS,67202-2804,NULL,NULL,http://rivercitybrewingco.com
Salt City Brewing,micro,Hutchinson,KS,67501,-97.93175306,38.05869143,NULL
Tallgrass Brewing Co,regional,Manhattan,KS,66503-9815,-96.6792762,39.1428736,http://www.tallgrassbeer.com
Tallgrass Taphouse Co,brewpub,Manhattan,KS,66502-6038,-96.561291,39.1795046,http://www.tallgrasstaphouse.com
The Boiler Room Brewhaus LLC,micro,Fort Scott,KS,66701-1311,-94.70741825,37.84103842,http://www.Boileroombrewhaus.com
The Jolly Fox Brewery,planning,Pittsburg,KS,66762,NULL,NULL,http://Www.thejollyfoxbrrewery.com
Third Place Brewing,micro,Wichita,KS,67202-3537,NULL,NULL,http://www.thirdplacebrew.com
Three Rings Brewery,micro,McPherson,KS,67401-6026,NULL,NULL,NULL
Transport Brewery,planning,Shawnee,KS,66203-2749,NULL,NULL,http://www.transportbrewery.com
Union Works Brewery LLC,planning,Humboldt,KS,66748-1050,NULL,NULL,NULL
Walnut River Brewing Company,micro,El Dorado,KS,67042-3513,-96.85004869,37.81367549,http://www.walnutriverbrewing.com
Wichita Brewing Co & Pizzeria,brewpub,Wichita,KS,67212-4072,NULL,NULL,http://www.wichitabrew.com
Wichita Brewing Co & Pizzeria,brewpub,Wichita,KS,67208-3668,-97.262463,37.74682,http://www.wichitabrew.com
"Wichita Brewing Co Production, LLC",micro,Wichita,KS,67211-4327,-97.32983941,37.66244565,NULL
Willcott Brewing Company,planning,Holton,KS,66436-1703,NULL,NULL,http://www.willcottbrewing.com
Yankee Tank Brewing Company,micro,Lawrence,KS,66046-4952,NULL,NULL,http://yankeetankbrewing.com
23 Brewing Company / Lizzie B's Cafe,brewpub,Prestonsburg,KY,41653-9103,NULL,NULL,http://www.23brewingcompany.com
3rd Turn Brewing,micro,Louisville,KY,40299-3702,-85.56656078,38.19322725,http://www.3rdturnbrewing.com
Against the Grain Beer Garden,planning,Louisville,KY,40217,NULL,NULL,NULL
Against the Grain Brewery,micro,Louisville,KY,40202-1110,-85.7440377,38.2554568,http://atgbrewery.com
Against the Grain Production Facility,micro,Louisville,KY,40203,-85.7767241,38.2658758,NULL
Akasha Brewing Company,micro,Louisville,KY,40206-1688,NULL,NULL,http://www.akashabrewing.com
Alexandria Brewing Company,micro,Alexandria,KY,41001-1454,NULL,NULL,http://www.alexandriabrewingcompany.com
Alltech's Lexington Brewing,regional,Lexington,KY,40508-3134,-84.51599645,38.04950651,http://www.Kentuckyale.com
Apocalypse Brew Works,micro,Louisville,KY,40206-1752,-85.72031443,38.2566442,http://www.apocalypsebrewworks.com
Braxton Labs,micro,Bellevue,KY,41073-1337,-84.4872671,39.10060941,NULL
Beer Engine,micro,Danville,KY,40422-1674,-84.771328,37.6481,http://www.kybeerengine.com
Bircus Brewing,micro,Ludlow,KY,41016-1451,-84.54923129,39.0935089,http://www.bircus.com
Blue Stallion Brewing Company,micro,Lexington,KY,40508-1243,-84.50136234,38.05710985,http://www.bluestallionbrewing.com
Bluegrass Brewing Co - Brewpub,brewpub,Louisville,KY,40202-2945,-85.75508898,38.25620645,http://www.bbcbrew.com
Braxton Brewing Company,micro,Covington,KY,41011-2301,-84.51080761,39.08292505,http://www.braxtonbrewing.com
Chase Brewing Company / Chase Tap Room,brewpub,Lexington,KY,40508-1217,-84.4986682,38.0546834,http://www.chasebrewing.com
Country Boy Brewing - Georgetown,micro,Georgetown,KY,40324-0000,NULL,NULL,NULL
Country Boy Brewing,micro,Lexington,KY,40508-3106,-84.50925267,38.0439487,http://www.countryboybrewing.com
Cumberland Brewery,brewpub,Louisville,KY,40205-1154,-85.70553172,38.23084195,NULL
Darkness Brewing,micro,Bellevue,KY,41073-1041,-84.48468072,39.10500991,NULL
Dreaming Creek Brewery,micro,Richmond,KY,40475-1521,-84.29111565,37.747285,http://www.dreamingcreekbrewery.beer
Dry Ground Brewing Company,micro,Paducah,KY,42001-4305,-88.63767771,37.0705097,http://www.drygroundbrewing.com
Dueling Barrels,micro,Pikeville,KY,41501-9078,-82.518819,37.48176335,http://www.duelingbarrels.com
Ethereal Brewing,micro,Lexington,KY,40504-1129,-84.5200035,38.056562,http://www.etherealbrew.com
Falls City Brewing Company,micro,Louisville,KY,40204,-85.73625618,38.25036895,http://www.fallscitybeer.com
Flywheel Brewing Company,micro,Elizabethtown,KY,42701-1431,NULL,NULL,http://www.flywheelbrewing.com
Goodwood Brewing Co,micro,Louisville,KY,40202-1004,-85.7400684,38.254635,http://www.goodwood.beer
Gordon Biersch Brewery Restaurant - Louisville,brewpub,Louisville,KY,40202-3418,-85.7574044,38.2528789,http://www.gordonbiersch.com/restaurant
Gravely Brewing Co.,micro,Louisville,KY,40204-1104,-85.7301702,38.2470763,http://www.gravelybrewing.com
Great Flood Brewing,micro,Louisville,KY,40205-1916,-85.6938076,38.2239974,http://www.greatfloodbrewing.com
Great Flood Brewing- Production Facility,micro,Louisville,KY,40203-2618,-85.74511415,38.2290463,NULL
Henderson Brewing Company,planning,Henderson,KY,42420-3226,NULL,NULL,NULL
Hofbrauhaus Newport,brewpub,Newport,KY,41071-1612,-84.494527,39.094846,http://www.hofbrauhausnewport.com
Holsopple Brewing,micro,Louisville,KY,40222-4793,-85.6064539,38.2598078,http://www.holsopplebrewing.com
Hopcat - Louisville,brewpub,Louisville,KY,40204,-85.7217319,38.2385242,NULL
Hopkinsville Brewing Company,micro,Hopkinsville,KY,42240-3306,-87.48735745,36.86749436,http://www.hopkinsvillebrewingcompany.com
Jarfly Brewing Co,micro,Somerset,KY,42501-1627,-84.60558001,37.09179504,http://www.jarflybrewing.com
Lemons Mill Brewery,micro,Harrodsburg,KY,40330-1311,-84.83862624,37.7608082,http://www.lemonsmillbrewery.com
Life Brewpub,brewpub,Lexington,KY,40509-1501,-84.43443,37.991255,http://www.LifeBrewpub.com
"Maiden City Brewing Company, LLC",micro,Cynthiana,KY,41031-1527,-84.288072,38.388396,http://www.maidencitybrewing.com
Mash Cult Brewing,micro,Florence,KY,41042-1616,-84.6436665,39.0008541,NULL
Mile Wide Beer Co.,micro,Louisville,KY,40204-1142,-85.7330744,38.2465656,http://www.milewidebeer.com
Mirror Twin Brewing,brewpub,Lexington,KY,40502-1431,-84.4784656,38.04042235,http://www.mirrortwinbrewing.com
Monnik Beer Company,brewpub,Louisville,KY,40217-1206,-85.739379,38.2225607,NULL
Old Louisville Brewery,micro,Louisville,KY,40208-2239,-85.76579382,38.22970855,http://www.oldlouisvillebrewery.com
Paducah Beer Werks,brewpub,Paducah,KY,42001-0753,-88.599512,37.088841,http://www.paducahbeerwerks.com
Pivot Brewing Company,micro,Lexington,KY,40505,-84.470627,38.038574,http://www.pivotbrewingcompany.com
Rock House Brewing,micro,Lexington,KY,40508-1686,-84.48229841,38.05652337,http://www.rockhousebrewing.com
Rooster Brewing,micro,Paris,KY,40361-1816,-84.25166366,38.21039483,http://www.roosterbrew.com
St Arnulf Alery,micro,Cadiz,KY,42211-0000,NULL,NULL,NULL
Dixie Brewing Co Inc.,contract,New Orleans,LA,70125-4191,NULL,NULL,NULL
Abita Brewing Co,regional,Covington,LA,70433-8651,NULL,NULL,http://www.abita.com
Bayou Teche Brewing,micro,Arnaudville,LA,70512-3526,NULL,NULL,http://www.bayoutechebrewing.com
Brasserie L'Etrange,planning,Prairieville,LA,70769-6114,NULL,NULL,NULL
Brieux Carre Brewing Company,micro,New Orleans,LA,70116,-90.0572496,29.9627851,http://www.brieuxcarre.com
Broken Wheel Brewery,brewpub,Marksville,LA,71351-3005,-92.06931518,31.12386287,NULL
Cajun Brewing,micro,Lafayette,LA,70506-4130,-92.04978922,30.21549043,http://www.cajunbrewing.com
"Cane River Brewing Co., L.L.C",planning,Natchitoches,LA,71457,NULL,NULL,http://www.caneriverbrewing.com
Chafunkta Brewing Co,micro,Mandeville,LA,70471-7777,NULL,NULL,http://www.chafunkta.com
Chappapeela Farms Brewery,micro,Amite,LA,70422-4922,NULL,NULL,http://www.chapbrewery.com
Crescent City Brewhouse,brewpub,New Orleans,LA,70130-1027,-90.0639242,29.9557185,http://www.crescentcitybrewhouse.com
Covington Brewhouse,micro,Covington,LA,70433-2828,-90.0970557,30.47766326,http://www.covingtonbrewhouse.com
Crying Eagle Brewing Company,micro,Lake Charles,LA,70607-4753,-93.20515133,30.17626439,http://www.cryingeagle.com
"Dixie Brewing Company, LLC",contract,New Orleans,LA,70112-1227,NULL,NULL,http://www.dixiebeer.com
Flying Heart Brewing,micro,Bossier City,LA,71111-4502,-93.732075,32.515706,http://www.flyingheartbrewing.com
Flying Tiger Brewery,micro,Monroe,LA,71201-6234,-92.11970662,32.50586475,http://www.flyingtigerbeer.com
Folsom Brewery,planning,Folsom,LA,70437-,NULL,NULL,NULL
Gnarly Barley Brewing,micro,Hammond,LA,70403-3719,-90.47912007,30.49701825,http://www.gnarlybeer.com
Gordon Biersch Brewery Restaurant - New Orleans,brewpub,New Orleans,LA,70130-1641,-90.0651027,29.9481058,http://www.craftworksrestaurants.com
Great Raft Brewing,micro,Shreveport,LA,71103-3705,-93.75545669,32.48900686,http://www.greatraftbrewing.com
High Ground Brewery,planning,Saint Francisville,LA,70775-2431,NULL,NULL,NULL
Huckleberry Brewing Company,micro,Alexandria,LA,71301,-92.45332257,31.26477666,http://www.huckleberrybrewingco.com
Le Chien Brewing Company,planning,Greenwell Springs,LA,70739,NULL,NULL,http://www.lechien.beer
Mudbug Brewery,micro,Thibodaux,LA,70302-1077,NULL,NULL,http://www.mudbugbrewery.com
New Orleans Lager and Ale Brewing (NOLA Brewing),micro,New Orleans,LA,70115-1039,-90.08141776,29.9199522,http://www.nolabrewing.com
Old Rail Brewing Co,brewpub,Mandeville,LA,70448-5205,-90.06386106,30.35985466,http://www.oldrailbrewing.com
Ouachita Brewing Company,micro,West Monroe,LA,71291-3299,-92.1221749,32.49990448,http://www.ouachitabrewing.com
Parish Brewing Company,micro,Broussard,LA,70518-4362,-91.9485237,30.1592466,http://www.parishbeer.com
Parleaux Beer Lab,micro,New Orleans,LA,70117,-90.03400238,29.9607459,http://www.parleauxbeerlab.com
Port Orleans Brewing Company,micro,New Orleans,LA,70115-1435,-90.0982849,29.9169759,http://www.portorleansbrewingco.com
Pub Craught,planning,Baton Rouge,LA,70809-2228,NULL,NULL,NULL
Red River Brewing Co,micro,Shreveport,LA,71101-3936,NULL,NULL,http://www.redriverbeer.com
Royal Brewery,micro,New Orleans,LA,70126-1138,NULL,NULL,http://WWW.royalbrewerynola.com
Sawbriar Brewery,planning,Lafayette,LA,70501,NULL,NULL,http://www.sawbriarbrewery.com
Second Line Brewing,micro,New Orleans,LA,70119-4311,-90.1056073,29.9825676,http://www.secondlinebrewing.com
Southern Craft Brewing Company,micro,Baton Rouge,LA,70817-6259,NULL,NULL,http://www.socraftbeer.com
Spigots Brew Pub,brewpub,Houma,LA,70360-4608,-90.71974565,29.59396551,http://www.spigotsbrewpub.com
The Courtyard Brewery,micro,New Orleans,LA,70130-4112,-90.07054452,29.9387632,http://www.courtyardbrew.com
The Seventh Tap Brewing Project,planning,Bossier City,LA,71112,NULL,NULL,http://www.theseventhtap.com
Tin Roof Brewing Co,micro,Baton Rouge,LA,70802-8514,-91.1884332,30.419556,http://www.tinroofbeer.com
Urban South Brewery,micro,New Orleans,LA,70130-1852,-90.0666607,29.9296799,http://www.urbansouthbrewery.com
Utility Brewing Company,brewpub,Ruston,LA,71270,-92.63790404,32.52986335,http://www.utilitybrewing.com
Wayward Owl Brewing Company,micro,New Orleans,LA,70125-2008,-90.09759137,29.9521547,http://www.waywardowlbrewing.com
10th District Brewing Company,micro,Abington,MA,02351-2419,-70.94594149,42.10591754,http://www.10thdistrictbrewing.com
3 Beards Beer Company,contract,Williamsburg,MA,1096,-72.7305059,42.3923659,http://www.3beardsbeer.com
3cross Fermentation Cooperative,micro,Worcester,MA,1603,-71.83057593,42.24364875,http://www.3cross.coop
7th Wave Brewing,micro,Medfield,MA,02052-1594,NULL,NULL,http://www.7thwavebrewing.com
Abandoned Building Brewery,micro,Easthampton,MA,01027-2805,NULL,NULL,http://www.abandonedbuildingbrewery.com
Aeronaut Brewing Company,micro,Somerville,MA,02143-3224,-71.1062676,42.3819723,http://www.aeronautbrewing.com
Altruist Brewing Company,brewpub,Sturbridge,MA,01518-1208,NULL,NULL,http://www.altruistbrewing.com
Amherst Brewing Co / Hangar Pub and Grill,brewpub,Amherst,MA,01002-2243,-72.5318418,42.3728635,http://www.amherstbrewing.com
Amorys Tomb Brewing Co,micro,Maynard,MA,01754-2516,-71.45315644,42.43203845,http://amorystomb.com
Anawan Brewing Company,planning,Dighton,MA,2764,NULL,NULL,http://www.anawanbrewingco.com
Aquatic Brewing LLC,planning,Falmouth,MA,02540-3299,NULL,NULL,http://www.aquaticbrewing.com
Arcpoint Brewing Co,micro,Belchertown,MA,01007-9305,NULL,NULL,http://www.arcpointbrewco.com
Backlash Beer Co,contract,Boston,MA,2215,NULL,NULL,http://backlashbeer.com/
Bad Martha Farmer's Brewery,brewpub,Edgartown,MA,02539-,-70.52732,41.394402,http://www.badmarthabeer.com
BareWolf Brewing,micro,Amesbury,MA,1913,-70.92336518,42.85606929,http://www.barewolfbrewing.com
Barnstable Brewing,micro,Hyannis,MA,02601-3644,-70.31159594,41.64913517,http://www.barnstablebrewing.com
Barrel House Z,micro,Weymouth,MA,02189-2335,NULL,NULL,http://www.barrelhousez.net
Barrington Brewery and Restaurant,brewpub,Great Barrington,MA,01230-9512,NULL,NULL,http://www.barringtonbrewery.net
Battle Road Brewing Co,micro,Maynard,MA,01754-2530,-71.45416113,42.43001225,http://www.battleroadbh.com
Bay State Beer Company,micro,Sturbridge,MA,01566-1568,NULL,NULL,http://www.baystatebeer.com
Bear and Bramble Brewing Company,micro,Easthampton,MA,01027-2207,NULL,NULL,NULL
Bent Water Brewing Company,micro,Lynn,MA,01905-3058,NULL,NULL,http://www.bentwaterbrewing.com
Berkley Beer Company,micro,Berkley,MA,02779-1101,NULL,NULL,http://www.berkleybeer.com
Berkshire Brewing Co Inc,regional,South Deerfield,MA,01373-0096,-72.61025086,42.47779797,http://www.Berkshire-Brewing.com
Big Elm Brewing,micro,Sheffield,MA,1257,-73.351236,42.093595,http://www.bigelmbrewery.com
Black Hat Brew Works,micro,Bridgewater,MA,02324-2302,NULL,NULL,http://www.blackhatbrewworks.com
Bog Iron Brewing Co,micro,Norton,MA,02766-2711,-71.18849942,41.96658468,NULL
Bolton Beer Works,brewpub,Bolton,MA,01740-1238,-71.619812,42.430173,http://boltonbeerworks.com
Bone Up Brewing Co.,micro,Everett,MA,02149-1932,-71.0663396,42.405551,http://www.boneup.beer
Boston Beer Co,micro,Boston,MA,02210-2300,NULL,NULL,NULL
Boston Beer Co,micro,Boston,MA,02130-2312,NULL,NULL,http://www.samueladams.com
Brazo Fuerte Artisanal Beer,proprietor,Watertown,MA,02472-4403,NULL,NULL,http://www.brazofuertebeer.com
"Brew Practitioners, LLC.",micro,Florence,MA,01062-3152,NULL,NULL,http://www.brewpractitioners.com
Brewery Silvaticus,brewpub,Amesbury,MA,01913-2936,-70.9295559,42.8573815,http://www.silvaticusbeers.com
Brewmasters Tavern / Brewmasters Brewing Services,micro,Williamsburg,MA,01096-9428,-72.7305059,42.3923659,NULL
Brick and Feather Brewery,micro,Turners Falls,MA,01376-1020,NULL,NULL,http://www.brickandfeatherbrewery.com
Bright Ideas Brewing,micro,North Adams,MA,01247-2411,NULL,NULL,http://www.brightideasbrewing.com
Building 8 Brewing,micro,Florence,MA,01062-2750,NULL,NULL,NULL
Burke's Alewerks,micro,Hanover,MA,02339-1230,NULL,NULL,http://www.burkesalewerks.com
Buzzards Bay Brewing Co,micro,Westport,MA,02790-1399,-71.04970461,41.55207456,http://www.buzzardsbrew.com
Cambridge Brewing Co,brewpub,Cambridge,MA,02139-1592,NULL,NULL,http://www.cambridgebrewingcompany.com
Cape Ann Brewing Co,brewpub,Gloucester,MA,01930-5014,-70.66509344,42.61161602,NULL
Cape Ann Lanes,planning,Gloucester,MA,01930-2256,NULL,NULL,NULL
Cape Cod Beer,micro,Hyannis,MA,02601-1875,NULL,NULL,http://www.capecodbeer.com
Castle Island Brewing Co.,micro,Norwood,MA,02062-5016,-71.19186438,42.16931297,http://www.castleislandbeer.com
Cedar Point Brewery,planning,Scituate,MA,02066-1317,NULL,NULL,NULL
Charlton Beer Company,micro,Charlton,MA,1507,NULL,NULL,http://www.charltonbeercompany.com
Cheeky Monkey Brewing Co / Lucky Strike Jillians,brewpub,Boston,MA,02215-3412,-71.0946215,42.34729,http://www.cheekymonkeyboston.com
Cisco Brewers,micro,Nantucket,MA,02554-4341,-70.1292845,41.26135815,http://www.ciscobrewers.com
Cold Harbor Brewing Company,micro,Westborough,MA,01581-1228,NULL,NULL,http://www.coldharborbrewing.com
Mobtown Brewing Co,planning,Baltimore,MD,21224-4716,NULL,NULL,NULL
"1623 Brewing CO, llc",contract,Westminister,MD,21157,NULL,NULL,NULL
7 Locks Brewing,micro,Rockville,MD,20852-1833,NULL,NULL,http://www.7locksbrewing.com
"Antietam Brewery,LLC",micro,Hagerstown,MD,21740-5197,NULL,NULL,http://www.antietambrewery.com
Astro Lab Brewing,planning,Silver Spring,MD,20910-4519,NULL,NULL,http://www.astrolabbrewing.com
Attaboy Beer,micro,Frederick,MD,21701-6083,NULL,NULL,NULL
B.C. Brewery,micro,Hunt Valley,MD,21031-1327,NULL,NULL,http://www.bcbrewerymd.com
Back Creek Brewing Company,planning,Annapolis,MD,21401-4019,NULL,NULL,http://www.backcreekbrewing.com
Backshore Brewing Co.,brewpub,Ocean City,MD,21842-6689,NULL,NULL,http://www.BackshoreBrew.com
Baltimore Washington Beer Works,contract,Dundalk,MD,21222,NULL,NULL,http://www.ravenbeer.com
Barley and Hops Grill,brewpub,Frederick,MD,21704-7275,-77.3995969,39.38204685,http://www.barleyandhops.net
Big Truck Brewery,planning,Parkton,MD,21120-9004,NULL,NULL,http://www.bigtruckfarms.com
Bird Nickel Brewing Company,planning,Easton,MD,21601-3904,NULL,NULL,NULL
Black Flag Brewing Company,micro,Columbia,MD,21046-2091,-76.810364,39.192524,http://www.blackflagbrewingco.com
Brawling Bear,micro,Gaithersburg,MD,20877-2067,NULL,NULL,http://www.brawlingbear.com
Brew House No 16,brewpub,Baltimore,MD,21202-3705,-76.61271192,39.29963095,http://www.brewhouseno16.com
Brewer's Alley Restaurant and Brewery,brewpub,Frederick,MD,21701-5422,-77.41045515,39.41607325,http://www.brewers-alley.com
Broken Gate Brewing,planning,Baltimore,MD,21230-4464,NULL,NULL,NULL
Brookeville Beer Farm,micro,Brookeville,MD,20833-1711,-77.0579247,39.1780888,http://www.brookevillebeerfarm.com
Bull and Goat Brewery,micro,Centreville,MD,21617-1067,NULL,NULL,http://www.bullandgoatbrewery.com
Burley Oak Craft Brewery,micro,Berlin,MD,21811-1145,-75.2169864,38.3336448,http://www.burleyoak.com
"BW Farm, LLC",planning,Owings,MD,20736-9109,NULL,NULL,NULL
Calvert Brewing Co,micro,Prince Frederick,MD,20678-3709,NULL,NULL,http://www.calvertbrewingcompany.com
Calvert Brewing Co,micro,Upper Marlboro,MD,20774-7437,NULL,NULL,http://calvertbrewingcompany.com
Checkerspot Brewing Company,brewpub,Baltimore,MD,21230,-76.6195028,39.2749156,http://www.checkerspotbrewing.com
Chesapeake Brewing Co,brewpub,Annapolis,MD,21401-2802,-76.4974843,38.9780984,http://www.chesbrewco.com
Chesepiooc Real Ale Brewery,micro,Crofton,MD,21114,-76.69804666,39.01687169,http://www.brewcrab.com
Costa Ventosa Winery & Vineyard,brewpub,Whaleyville,MD,21872-2116,-75.26004107,38.42358687,http://www.costaventosa.com
Crooked Crab Brewing Company,micro,Odenton,MD,21113,-76.69482405,39.09729159,http://www.cookedcrabbrewing.com
Cult Classic Brewing,planning,Stevensville,MD,21666-4051,NULL,NULL,http://www.cultclassicbrewing.com
Cushwa Brewing Co,micro,Williamsport,MD,21795,NULL,NULL,http://www.cushwabrewing.com
Dempsey's Brew Pub and Restaurant - Baltimore,brewpub,Baltimore,MD,21201,-76.62013833,39.28518467,http://www.dempseysbaltimore.com
Denizens Brewing Company,brewpub,Silver Spring,MD,20910-4852,-77.02848142,38.98957715,http://www.denizensbrewingco.com
DuClaw Brewing Co,regional,Baltimore,MD,21237-2349,NULL,NULL,http://www.duclaw.com
Eastern Shore Brewing,micro,Saint Michaels,MD,21663,-76.2219945,38.78113562,http://www.easternshorebrewing.com
Elder Pine Brewing and Blending Co,micro,Gaithersburg,MD,20882,NULL,NULL,http://www.elderpine.com
Ellicott Mills Brewing Co,brewpub,Ellicott City,MD,21043-4601,-76.79944314,39.2681041,http://www.ellicottmillsbrewing.com
Evolution Craft Brewing Co,regional,Salisbury,MD,21804-5522,-75.595254,38.361979,http://www.evolutioncraftbrewing.com
Evolution Craft Brewing Co - Salisbury,brewpub,Salisbury,MD,21804-5515,-75.595628,38.360471,NULL
Falling Branch Brewery,micro,Street,MD,21154-1312,-76.3708166,39.66665004,http://fallingbranchbeer.com
Farmacy Brewing,planning,Reisterstown,MD,21136-3817,NULL,NULL,NULL
Flying Dog Brewery,regional,Frederick,MD,21703-7120,-77.42679107,39.3628322,http://www.flyingdogbrewery.com
Franklins General Store,micro,Hyattsville,MD,20781-2042,-76.94074114,38.95194399,http://Franklinsbrewery.com
Frey's Brewing Company,micro,Mount Airy,MD,21771-9705,NULL,NULL,http://www.freysbrewing.com
Frisco Tap House & Push Brewery,brewpub,Columbia,MD,21045-4755,-76.8252248,39.1860574,http://www.friscogrille.com
Full Tilt Brewing,contract,Baltimore,MD,21212,NULL,NULL,http://www.fulltiltbrewing.com
Gordon Biersch Brewery Restaurant - Annapolis,brewpub,Annapolis,MD,21401-3681,NULL,NULL,http://www.craftworksrestaurants.com
Gordon Biersch Brewery Restaurant - Baltimore,brewpub,Baltimore,MD,21202-4631,NULL,NULL,http://www.craftworksrestaurants.com
Gordon Biersch Brewery Restaurant - Rockville,brewpub,Rockville,MD,20850-2206,NULL,NULL,http://www.craftworksrestaurants.com
Grail Point Brewery,proprietor,Emmitsburg,MD,21727-0702,NULL,NULL,http://www.grailpointbeer.co
2 Feet Brewing Company,brewpub,Bangor,ME,04401-6319,-68.77283099,44.80012684,http://www.2feetbrewing.com
Airline Brewing Company,micro,Amherst,ME,4428,-68.3677435,44.8329462,http://www.abcmaine.beer
Allagash Brewing Co,regional,Portland,ME,04103-1270,-70.3179518,43.7030951,http://www.allagash.com
Andrews Brewing Co,micro,Lincolnville,ME,04849-5846,NULL,NULL,NULL
Atlantic Brewing Co,micro,Bar Harbor,ME,04609-7770,NULL,NULL,http://atlanticbrewing.com
Atlantic Brewing Co / Bar Harbor Brewing,brewpub,Bar Harbor,ME,4609,-68.20607075,44.389488,http://www.barharborbrewing.com
Austin Street Brewery,micro,Portland,ME,04103-1072,NULL,NULL,http://www.austinstreetbrewery.com
"Bag and Kettle, The",brewpub,Carrabassett Valley,ME,04947-6808,NULL,NULL,http://www.thebagandkettle.com
Banded Brewing Company,micro,Biddeford,ME,04005-5145,NULL,NULL,http://www.bandedhorn.com
Bangor Beer Co.,brewpub,Bangor,ME,04401-3644,NULL,NULL,http://www.bangorbeerco.com
Barreled Souls Brewing Company LLC,micro,Saco,ME,04072-9005,-70.405728,43.553358,http://www.barreledsouls.com
Bath Brewing Company,brewpub,Bath,ME,4530,-69.81414593,43.91408541,http://www.bathbrewing.com
Battery Steele Brewing,micro,Portland,ME,04103-1072,NULL,NULL,http://www.batterysteele.com
"Baxter Brewing Co, LLC",regional,Lewiston,ME,04240-7774,-70.219607,44.09567728,http://www.baxterbrewing.com
Bear Bones Beer,micro,Bridgton,ME,04009-1137,NULL,NULL,NULL
Bear Bones Beer,micro,Lewiston,ME,04240-7115,-70.09605519,44.02012732,http://www.bearbonesbeer.com
Belfast Bay Brewing Co,contract,Belfast,ME,04915-7221,-68.9880177,44.4309432,http://www.belfastbaybrewing.com
Bigelow Brewing Company,brewpub,Skowhegan,ME,04976-5126,-69.72961613,44.71991967,http://www.bigelowbrewing.com
Bissell Brothers Brewing,micro,Portland,ME,04102-2639,-70.2904097,43.6514062,http://www.bissellbrothers.com
Black Bear Brewery,micro,Orono,ME,04473-4095,NULL,NULL,http://www.blackbearmicrobrew.com
Blank Canvas Brewery,micro,Brewer,ME,04412-2636,NULL,NULL,http://www.blankcanvasbrewery.wordpress.com
"Boothbay Craft Brewery, Inc",micro,Boothbay,ME,04537-4334,NULL,NULL,http://www.boothbaycraftbrewery.com
Bunker Brewing Co,micro,Portland,ME,04102-2730,NULL,NULL,http://www.bunkerbrewingco.com
Cushnoc Brewing Company,brewpub,Augusta,ME,04330-4615,-69.77344232,44.31664349,http://www.cushnocbrewing.com
D.L. Geary Brewing Co Inc.,micro,Portland,ME,04103-1066,-70.31484813,43.70767416,http://www.gearybrewing.com
DeepWater Brewing Company,micro,Blue Hill,ME,4614,NULL,NULL,http://www.arborvine.com
Definitive Brewing Company,micro,Portland,ME,04103-1071,-70.3142737,43.70629522,http://www.definitivebrewing.com
Dirigo Brewing Co.,micro,Biddeford,ME,04005-2040,-70.45608584,43.49545704,http://www.dirigobrewingcompany.com
"Drumming Grouse Brewery, LLC",micro,Bridgton,ME,04009-4032,-70.68838325,43.97416125,http://www.drumminggrousebrewery.com
First Mile Brewing Company,micro,Fort Kent,ME,4743,NULL,NULL,NULL
Flight Deck Brewing,micro,Brunswick,ME,04011-4400,NULL,NULL,http://www.flightdeckbrewing.com
Fogtown Brewing Company,micro,Ellsworth,ME,04605-2023,-68.42259791,44.5408544,http://www.fogtownbrewing.com
Fore River Brewing Company,micro,South Portland,ME,04106-4115,-70.28767105,43.63249066,http://www.foreriverbrewing.com
Foulmouthed Brewing,brewpub,South Portland,ME,04106-2838,-70.2548007,43.640989,http://www.foulmouthedbrewing.com
Foundation Brewing Company,micro,Portland,ME,04103-1072,NULL,NULL,http://www.foundationbrew.com
Friars' Brewhouse,micro,Bucksport,ME,4416,-68.79558414,44.57202344,NULL
Funky Bow Brewery & Beer Company,micro,Lyman,ME,04002-7376,-70.60146195,43.48539497,http://www.funkybowbeercompany.com
Gary's Olde Towne Tavern,micro,Naples,ME,04055-5335,-70.601073,43.969705,http://www.garysoldetownetavern.com
Geaghan Brothers Brewing Co,micro,Brewer,ME,04412-2202,-68.77310776,44.78208079,http://www.geaghanspub.com
Geaghan's Pub & Craft Brewery,brewpub,Bangor,ME,04401-6821,-68.777503,44.7867295,http://www.geaghanspub.com
Gneiss Brewing,micro,Limerick,ME,04048-4242,-70.81799747,43.64831306,http://www.gneissbeer.com
Goodfire Brewing Company,micro,Portland,ME,04101-1401,NULL,NULL,http://www.goodfirebrewing.com
Grateful Grain Brewing Company,micro,Monmouth,ME,04259-7727,NULL,NULL,http://www.gratefulgrainbrewing.com
Gritty McDuffs - Freeport,brewpub,Freeport,ME,4032,NULL,NULL,http://www.grittys.com
Gritty McDuffs - Lewiston/Auburn,brewpub,Auburn,ME,04210-5812,-70.22448665,44.0971728,NULL
Gritty McDuffs - Portland,brewpub,Portland,ME,04101-4026,-70.2533609,43.6564108,http://www.grittys.com
Gruit Brewing,micro,Portland,ME,04101-2562,-70.255898,43.669074,http://www.fermentory.com
Hidden Cove Brewing Co,micro,Wells,ME,04090-4135,-70.58104548,43.30407704,http://www.hiddencovebrewingcompany.com
"Inn On Peaks Island Brewery, The",brewpub,Peaks Island,ME,04108-1333,-70.1979666,43.65417851,http://www.innonpeaks.com
Island Dog Brewing,micro,South Portland,ME,04106-3295,-70.33101442,43.63059386,http://www.islanddogbrewing.com
Ironbark Brewery,micro,Jackson,MI,49203-4908,-84.43762976,42.2188971,NULL
127 Brewing,micro,Jackson,MI,49201-7010,-84.43116792,42.28667212,NULL
5 Lakes Brewing Co.,brewpub,Dorr,MI,49323-9312,-85.70445518,42.72497157,http://www.5lakesbrewing.com
51st State Brewing Company,brewpub,Kingsford,MI,49802-3815,-88.08819,45.808408,http://www.51ststatebrewingcompany.com
734 Brewing Company,micro,Ypsilanti,MI,48198,-83.61103475,42.24586784,NULL
Aberrant Ales,brewpub,Howell,MI,48843,-83.93094539,42.60773722,http://www.aberrantales.com
Abner's Restaurant Inc / Northern Michigan Beer,brewpub,Brohman,MI,49312,NULL,NULL,NULL
Albion Malleable Brewing Company,brewpub,Albion,MI,49224,-84.7532755,42.2423188,http://www.albionmalleable.com
Alma Brewing Co,brewpub,Alma,MI,48801-1819,-84.6588719,43.37888808,http://www.almabrewing.com
American Badass Beer,contract,Detroit,MI,48216-1946,NULL,NULL,http://www.americanbadassbeer.com
American Brewers Inc,micro,Kalamazoo,MI,49001-4111,-85.5378194,42.26671998,http://www.americanbrewers.us
American Harvest Brewpub At Schoolcraft College,brewpub,Livonia,MI,48152-3932,-83.42868497,42.419317,http://www.schoolcraft.edu
Arbor Brewing Co,brewpub,Ann Arbor,MI,48104-1905,-83.74822471,42.28041029,http://www.arborbrewing.com
Arbor Brewing Co. Microbrewery,micro,Ypsilanti,MI,48198-2825,-83.6099915,42.250158,NULL
Arcadia Brewing Co,micro,Kalamazoo,MI,49007-4946,-85.5715368,42.2950789,http://www.arcadiaales.com
Arclight Brewing Company,micro,Watervliet,MI,49098-9797,-86.25939238,42.19104832,http://www.arclightbrewing.com
